STORE_ID	TOTAL	REST_NAME	REST_LAT	REST_LNG
22	118	French Dip MR	19.414104000000	-99.164531000000
10000031	105	Jack´s Butcher - Oasis Coyoacán	19.345590000000	-99.179670000000
10000032	279	French Dip Samara	19.367956000000	-99.258782000000
10000040	749	Santino Condesa	19.415946000000	-99.169486000000
10000043	151	Be Salad Polanco	19.437749000000	-99.210518000000
10000058	1375	Los Chilakos - Chamizal	19.389062856596	-99.261711107969
10000084	413	Krispy Kreme Universidad	19.367715000000	-99.164696000000
10000131	471	Pizza Amore Condesa	19.411287000000	-99.173752000000
10000140	133	Pizza Amore Polanco	19.430975000000	-99.197219000000
10000248	215	La Buena Tierra - Condesa	19.411767026971	-99.174916243638
10000248	1108	La Buena Tierra - Condesa	19.411786000000	-99.174414000000
10000277	538	Yumi Yumi - Samara	19.368096000000	-99.259031000000
10000278	116	Kunio	19.347974530728	-99.190601647239
10000295	799	El Farolito Altata	19.406346000000	-99.172858000000
10000298	1061	El Farolito Polanco	19.432992499960	-99.189603515956
10000300	643	El Farolito Prolongación	19.390143000000	-99.259549000000
10000339	1102	Las Alitas - Condesa	19.406077000000	-99.170529000000
10000339	872	Las Alitas - Condesa	19.406128861421	-99.170475355820
10000341	1169	Las Alitas Santa Fe	19.360946000000	-99.278694000000
10000342	980	Las Alitas Revolucion	19.341476000000	-99.191275000000
10000343	1234	Las Alitas Insurgentes	19.356481000000	-99.184875000000
10000344	718	Las Alitas Coyoacán	19.343992000000	-99.156988000000
10000352	233	Magnolia Bakery	19.430093000000	-99.196217000000
10000354	509	Papa Guapa Roma	19.423850000000	-99.160940000000
10000428	337	Sushi Itto - Parque Delta	19.403142580638	-99.154151631947
10000503	524	Wing's Army (Interlomas)	19.395336000000	-99.288657000000
10000503	266	Wing's Army - Interlomas	19.395336000000	-99.288657000000
10000513	345	Ela Gyros - Narvarte	19.398708000000	-99.152329000000
10000528	1329	Buffalo Wild Wings - Acora Delta	19.401966000000	-99.159747000000
10000571	122	La Hamburguesería	19.390053659304	-99.166540006117
10000575	767	Burritos México - Del Valle	19.392178000000	-99.162935000000
10000614	259	Sushi Itto - Plaza Oasis	19.345573130626	-99.179430285879
10000615	833	Sushi Itto - Zentrika	19.359730421383	-99.275116737434
10000616	434	Sushi Itto - Loreto	19.339813000000	-99.191075000000
10000618	176	Sushi Itto - Altavista	19.348710213523	-99.189655387732
10000620	174	Sushi Itto - Florida	19.357016000000	-99.184180000000
10000621	387	Sushi Itto - Coyoacán	19.356297756713	-99.168533110739
10000623	989	Sushi Itto - Universidad	19.373853033086	-99.163379782331
10000624	487	Sushi Itto - Holbein	19.383003000000	-99.175688000000
10000625	788	Sushi Itto - Nápoles	19.391811712706	-99.172873078539
10000628	908	Sushi Itto - Condesa	19.411643400000	-99.176419700000
10000629	425	Sushi Itto - Reforma	19.428684000000	-99.161718000000
10000630	738	Sushi Itto - Zona Rosa	19.425922000000	-99.165777000000
10000631	497	Sushi Itto - Galerías de las Estrellas	19.436284944209	-99.171981607479
10000632	300	Sushi Itto - Mariano Escobedo	19.430075300000	-99.180258000000
10000633	575	Sushi Itto - Newton	19.433256300000	-99.189268700000
10000634	252	Sushi Itto - Parroquia	19.370848000000	-99.175551706850
10000635	360	Sushi Itto - Masaryk	19.432337000000	-99.198206000000
10000637	631	Sushi Itto - Plaza Carso	19.441439000000	-99.203990000000
10000640	760	Sushi Itto - Pasaje Interlomas	19.401709247356	-99.274076268683
10000641	599	Sushi Itto - Bosques	19.389168564665	-99.261547893532
10000642	378	Sushi Itto - Paseo Arcos Bosques	19.386911000000	-99.251971000000
10000643	387	Sushi Itto - Patio Santa Fe	19.377121497503	-99.254478125166
10000644	435	Sushi Itto - Santa Fe Corporativo	19.367644714543	-99.261929311674
10000649	1326	Te Quiero Quinoa - Samara	19.367978795627	-99.259820944948
10000666	3154	La Casa de Toño - Marina Nacional	19.439824003331	-99.177768711639
10000666	1150	La Casa de Toño Marina Nacional	19.439824003331	-99.177768711639
10000696	2483	Sliders - Félix Cuevas	19.372772000000	-99.172951000000
10000705	2575	Frutos Prohibidos Pestalozzi	19.379998000000	-99.161094000000
10000780	1119	Nonsolo Polanco	19.430270000000	-99.196556000000
10000781	1015	Nonsolo Roma	19.416212000000	-99.159521000000
10000783	1027	El Farolito Interlomas	19.401829000000	-99.275816000000
10000784	1189	Sliders - Santa Fe	19.360786000000	-99.275300000000
10000788	816	Fratelli La Bufala	19.429432000000	-99.193036000000
10000805	1093	Churrería el Moro - Frontera	19.418876000000	-99.155593000000
10000811	1222	Rocco & Simona	19.430437000000	-99.197325000000
10000818	1989	Tori Tori Anatole	19.430163600000	-99.197569500000
10000820	421	Tori Tori Condesa	19.409896300000	-99.169206100000
10000820	1136	Tori Tori Izakaya	19.409896300000	-99.169206100000
10000822	607	Tori Tori Altavista	19.349513000000	-99.196677000000
10000846	554	Cassava Roots Prado Norte	19.427312000000	-99.210832000000
10000850	176	Cassava Roots Plaza Polanco	19.437734000000	-99.210517000000
10000855	968	Cassava Roots Parque Interlomas	19.396385600000	-99.288347600000
10000856	700	Cassava Roots - Condesa	19.406733000000	-99.170614000000
10000859	361	Cassava Roots Reforma	19.430701000000	-99.169586000000
10000872	820	Chilaquil del Valle	19.382453000000	-99.165497000000
10000876	188	Macellería	19.417274000000	-99.159599000000
10000907	104	Chiltepinos Wings	19.436868000000	-99.206882000000
10000947	265	La Raclette Cuauhtémoc	19.427643000000	-99.174699000000
10001009	134	Wok Station	19.359438000000	-99.275014000000
10001038	2643	La Pibil Narvarte	19.396135900000	-99.160011200000
10001041	161	La Lechuguería	19.438409000000	-99.190662000000
10001043	2769	Carl's Jr Zona Rosa (S)	19.424731154716	-99.163550224537
10001043	5978	Carl's Jr. - Zona Rosa (S)	19.424731154716	-99.163550224537
10001043	1552	Carl's Jr. - Zona Rosa (S)	19.424819688435	-99.163595822090
10001044	290	Carl's Jr. - Interlomas (S)	19.400386265013	-99.272744279762
10001044	2470	Carl's Jr. - Interlomas (S)	19.400237000000	-99.272696000000
10001044	1128	Carl's Jr - Interlomas (S)	19.400237000000	-99.272696000000
10001045	1202	Carl's Jr. - Garden Santa Fe (S)	19.365611400000	-99.264304800000
10001045	580	Carl's Jr Garden Santa Fe (S)	19.365611400000	-99.264304800000
10001045	109	Carl's Jr. - Garden Santa Fe (S)	19.365683517940	-99.264448298182
10001053	757	Yumi Yumi - Miyana	19.438615000000	-99.200422000000
10001055	197	Burros con Alas Santa Fe	19.367804000000	-99.258965000000
10001114	651	Nonsolo Nápoles	19.388558000000	-99.177544000000
10001125	947	Balboa Pizzería	19.429546000000	-99.165984000000
10001154	134	Tamale Mío	19.363934000000	-99.184397000000
10001161	832	Porco Rosso Roma	19.415800800000	-99.158955900000
10001162	565	Porco Rosso Polanco	19.432297000000	-99.181909000000
10001165	283	"Panadería Rosetta 	"	19.420008000000	-99.160424000000
10001168	1854	Pizza del Perro Negro - Roma Norte	19.416562000000	-99.169699000000
10001200	124	Hot Dog Ramírez Roma Norte	19.421088000000	-99.173627000000
10001201	181	Hot Dog Ramírez Cuauhtémoc	19.431546000000	-99.162459000000
10001202	190	Hot Dog Ramírez Condesa	19.412679762217	-99.180003332506
10001203	238	Hot Dog Ramírez Juárez	19.429980000000	-99.155761000000
10001204	1541	House of Wok	19.424366000000	-99.175225000000
10001212	999	Panda Express - Leibnitz	19.429405758550	-99.178312445438
10001212	1705	Panda Express Leibnitz	19.429727000000	-99.178063000000
10001213	1385	Panda Express - WTC	19.394460000000	-99.174121000000
10001213	1496	Panda Express WTC	19.394460000000	-99.174121000000
10001224	1055	Los Panchos Tolstoi	19.425475466689	-99.177262460731
10001237	993	Pane Envía Anzúres	19.435379644093	-99.173378571758
10001285	487	Juanjo's Kebab	19.435757080446	-99.190922746321
10001531	326	Flautas México - Polanco	19.432620000000	-99.189959000000
20000397	222	Chilim Balam - Loreto	19.340015800000	-99.195605300000
21040073	2224	Uncle Beef Providencia	20.697216000000	-103.386197000000
21040074	748	Lonches Karlos Providencia	20.700056245964	-103.383199329450
21040075	537	Lonches Karlos Chapalita	20.664142000000	-103.412399000000
21040076	549	Lonches Karlos Valle Real	20.729852000000	-103.435111000000
21040077	616	Lonches Karlos Naciones Unidas	20.687832000000	-103.426806000000
21040080	286	Lonches Karlos Bugambilias	20.601328796425	-103.447973058110
21040083	134	Cafeto Providencia	20.696946000000	-103.389650000000
21040083	783	Cafeto Providencia	20.696574000000	-103.389663000000
21040086	375	Alas Wings Ávila Camacho	20.709272000000	-103.369855000000
21040090	276	Boca 21 Providencia	20.684944000000	-103.385051000000
21040096	781	Distrito Wok - Providencia	20.684722000000	-103.391683000000
21040097	1593	Verde Miel	20.684678000000	-103.391888000000
21040097	776	Verde Miel	20.684775235726	-103.391775347221
21040106	269	Boca del Cielo Providencia	20.702322000000	-103.378495000000
30000011	243	Farina - Roma	19.417398355799	-99.160679483467
30000012	283	Farina Altavista	19.349523000000	-99.196719000000
300000026	2452	Burger King Interlomas	19.400091563938	-99.274570859772
300000027	1419	Burger King San Cosme	19.439666871733	-99.156031459004
300000028	1036	Burger King Reforma 222	19.428347460000	-99.160876590000
300000029	505	Burger King Ampliación Santa Fe	19.360960000000	-99.275764000000
300000030	1905	Burger King Tlalpan	19.391454478823	-99.138761434359
300000031	1102	Burger King Samara	19.367832000000	-99.258417000000
300000034	1972	NL Burger King Tlalpan Ermita	19.362824000000	-99.143227000000
300000036	1692	NL Burger King Pabellón Polanco 	19.438336000000	-99.208239000000
300000037	2459	Burger King Roma	19.413072000000	-99.166339000000
300000038	1593	NL Burger King Universidad	19.375540000000	-99.162059000000
300000039	529	Burger King Cervantes	19.441469161911	-99.206571728836
300000040	1591	NL Burger King Génova	19.426170000000	-99.164056000000
300000041	1737	NL Burger King Nápoles	19.392600484140	-99.173254524554
300000044	565	Burger King Patio Santa Fé	19.376813000000	-99.255391000000
300000045	1458	Burger King Relox	19.340060000000	-99.190034000000
300000046	1923	Burger King Antara 	19.439209000000	-99.202239000000
300000047	1712	Burger King Pabellón Cuauhtémoc	19.411794627680	-99.155608503145
300000049	135	Burger King Galerías Insurgentes 	19.370909457917	-99.178674424606
300000049	793	Burger King Galerías Insurgentes 	19.370788000000	-99.178256000000
300000050	1189	Burger King Plaza Universidad	19.367685000000	-99.165382000000
300000061	250	Fractal Café - Salamanca	19.420696000000	-99.169842000000
300000062	187	Fractal Café - Coyoacán	19.344357000000	-99.163454000000
300000063	1541	Butcher & Sons - Roma	19.419660000000	-99.160229000000
300000125	1539	Barbacoa de Santiago Napoles	19.386251000000	-99.175770000000
300000132	664	Which Wich - Interlomas	19.402287000000	-99.272148000000
300000134	489	Which Wich  Patio Santa Fe	19.376970000000	-99.254251000000
300000136	1072	Kome Kome - Centro Histórico	19.433192000000	-99.144213000000
300000152	139	Gastone Pizza	19.386019000000	-99.146775000000
300000153	129	Ricchi Pizza	19.386162000000	-99.146826000000
300000154	129	Los Dinosaurios	19.386019000000	-99.146775000000
300000174	165	Aurora Repostería & Casa Gourmet	19.387034000000	-99.170993000000
300000190	119	El Jefe: Smoke And Grill House	19.519830100823	-99.254088855156
300000193	158	Jack´s Butcher - Antara	19.439590000000	-99.202268000000
300000201	569	La Fuente del Sabor	19.517349000000	-99.249636000000
300000209	315	Los Picositos	19.356760000000	-99.199020000000
300000211	128	Suteki	19.441740000000	-99.182746000000
300000216	673	Subway - Palmas	19.430195000000	-99.209845000000
810000345	560	La Castellana Revolución	19.359113439238	-99.189745434359
810000345	574	La Castellana Revolución	19.359134000000	-99.189728000000
810000347	306	La Castellana Interlomas	19.402726251398	-99.270325390790
810000348	657	La Castellana Polanco	19.436005200000	-99.198529700000
810000349	865	La Castellana Napoles	19.385728000000	-99.176411000000
810000350	755	La Castellana Zentrika Santa Fe	19.359869000000	-99.275144000000
900000021	101	Daddy´s Burger Sonora	19.413040000000	-99.166360000000
900000023	164	Piyoli	19.400299000000	-99.171651000000
900000039	168	Las Flautas Tonalá	19.415623000000	-99.161975000000
900000211	1634	Jugueria Caro	19.412712990410	-99.166658836805
900000259	755	La Chinampa - Cuauhtémoc	19.429523327980	-99.167114548445
900000260	689	La Chinampa - Nápoles	19.394405000000	-99.175198000000
900000261	946	La Chinampa - Concepción	19.389701000000	-99.166518000000
900000262	1386	La Chinampa - Amores	19.373619000000	-99.168967000000
900000275	903	Don Kebab Polanco	19.432993617589	-99.208317143517
900000275	994	Don Kebab Polanco	19.432962000000	-99.208580000000
900000284	1921	Churrería El Moro - Cuauhtémoc	19.428307411561	-99.169482614750
900000287	475	Vegani	19.411339000000	-99.166125000000
900000296	1187	Chilakillers	19.406856542578	-99.184520425760
900000333	338	Dragon Mansion	19.402613000000	-99.169788000000
900000388	4235	Básico 	19.430469882216	-99.197258813492
900000414	1490	Amati Deli - Polanco	19.433398440755	-99.190581842345
900000606	2624	Pollos Mario	19.411467000000	-99.164600000000
900000622	625	Sushi Itto - Everest	19.419649000000	-99.214983000000
900000625	411	Sushi Itto - Antara	19.439580000000	-99.202508000000
900000748	164	Arbanus Nápoles	19.388220000000	-99.175651000000
900000761	809	Canibalazzo	19.390082000000	-99.259701000000
900000766	311	Falafelito Coyoacán	19.352121286625	-99.162987478504
900000767	447	Falafelito Condesa-Roma	19.410362000000	-99.170324000000
900000768	116	Falafelito Condesa-Tamaulipas	19.410743778302	-99.174865463501
900000775	1105	Klein's Bosques	19.384309000000	-99.266611000000
900001085	344	Sushi MX - Condesa	19.412672000000	-99.177778000000
900001091	291	Sushi MX Escandón	19.400539000000	-99.171943000000
900001095	765	Texas Ribs - Del Valle	19.388993711870	-99.173828749091
900001097	837	Veganísimo Lonchería Vegana	19.371176637040	-99.171192789567
900001117	326	Asador Libanés	19.388747000000	-99.174932000000
900001150	682	Tortas Locas Hipocampo - Roma Sur	19.400638000000	-99.168108000000
900001154	1380	Burritos México - Coyoacán	19.345602000000	-99.170358000000
900001155	1275	Te Quiero Quinoa - Roma	19.414082000000	-99.164553000000
900001156	1580	Teikit - WTC	19.394164000000	-99.173669000000
900001157	342	Mr. Yuca	19.388756000000	-99.277321000000
900001180	868	Caldos Ánimo - Nápoles	19.387756000000	-99.177674000000
900001185	407	Las Kampostras Av Stim	19.396285000000	-99.258616000000
900001186	195	China Girl	19.389665000000	-99.291631000000
900001218	372	Vips - WTC	19.394497000000	-99.172646000000
900001234	188	Shabb - Bosques	19.388980489069	-99.262038938658
900001234	1027	Shabb - Bosques	19.389076000000	-99.261992000000
900001235	745	Shabb - Lomas	19.423507000000	-99.203660000000
900001242	648	Cochinita Power	19.441305000000	-99.161883000000
900001257	884	Panda Express Cervantes	19.440752000000	-99.206924000000
900001257	656	Panda Express - Cervantes	19.440752000000	-99.206924000000
900001261	1930	Panda Express - Reforma	19.433657396161	-99.154893175316
900001271	452	Tortas El Chatìn	19.399911000000	-99.181151000000
900001274	5297	El Tizoncito Hamburgo	19.427240887854	-99.162401466271
900001294	262	El Fogoncito Leibnitz 55	19.427181000000	-99.177434000000
900001295	247	El Fogoncito Central Miyana	19.438759000000	-99.200206000000
900001298	342	El Fogoncito Felix Parra	19.369957000000	-99.185875000000
900001306	1545	Teikit Interlomas	19.390339000000	-99.291322000000
900001306	357	Teikit - Interlomas	19.390339000000	-99.291322000000
900001307	694	Teikit - Polanco	19.432944000000	-99.182931000000
900001307	2079	Teikit Polanco	19.432944000000	-99.182931000000
900001308	1272	Teikit Río Lerma	19.429553000000	-99.167000000000
900001308	439	Teikit - Río Lerma	19.429553000000	-99.167000000000
900001309	451	Teikit Bosques	19.405303000000	-99.240696000000
900001309	125	Teikit - Bosques	19.405303000000	-99.240696000000
900001311	1456	Teikit Prado Norte	19.427651000000	-99.210150000000
900001311	578	Teikit - Prado Norte	19.427651000000	-99.210150000000
900001314	2339	Los Chilaquiles del Barrio	19.388845000000	-99.163605000000
900001317	1595	IHOP - WTC	19.394669000000	-99.173158000000
900001317	984	IHOP - WTC	19.394517199737	-99.173151294478
900001320	3084	IHOP - Felix Cuevas	19.372576000000	-99.172960000000
900001321	138	IHOP - Santa Fe	19.376933078747	-99.253966147152
900001321	1126	IHOP - Santa Fe	19.377219000000	-99.254516000000
900001363	3390	Burger King Minerva	20.674042000000	-103.388094000000
900001369	1630	NL Burger King Ávila Camacho	20.705050000000	-103.365120000000
900001465	178	Szechuan Gourmet Express Anzures	19.425314000000	-99.177259000000
900001467	130	Wrap Company	19.362692000000	-99.180929000000
900001471	181	Burrito Express	19.362695000000	-99.180933000000
900001475	444	Pinche Gringo BBQ - Patio	19.393039000000	-99.152200000000
900001493	748	Urban Spices - Polanco	19.436047000000	-99.203628000000
900001500	608	Barbacoa Cuajimalpa	19.363407902887	-99.286154677246
900001514	189	Ocho Tres Cinco	19.377358000000	-99.187774000000
900001524	134	Big Slice	25.659061727595	-100.367445134341
900001524	1337	Big Slice	25.659017000000	-100.367537000000
900001528	124	Daisuki	19.368005000000	-99.259005000000
900001532	679	Vallartaco	20.678338915805	-103.397477411050
900001534	131	Chazz Dakota	19.395268000000	-99.175275000000
900001535	151	Chazz Lomas Verdes	19.495232000000	-99.247192000000
900001536	121	Chazz Plaza Inn	19.352513000000	-99.186492000000
900001543	143	Life & Salads - Londres	19.423713000000	-99.167397000000
900001550	269	Burros con Alas Stim	19.396038000000	-99.258856000000
900001551	231	Los Pasteles de Laura - Valle	25.659047000000	-100.374603000000
900001588	504	Caleta Providencia	20.702237000000	-103.378869000000
900001598	177	Tortas Atlixco	19.416578000000	-99.170749000000
900001599	468	Silvano's	25.658265306408	-100.365244322570
900001657	452	Pix Burrito House	25.651330000000	-100.373368000000
900001670	1109	Don Pollo	19.428211000000	-99.164004000000
900001679	3011	Taqueria Selene - Anzures	19.427087000000	-99.177351000000
900001681	2489	La Esquina del Chilaquíl	19.408410761685	-99.176508107969
900001681	4396	La Esquina del Chilaquíl	19.408431000000	-99.176547000000
900001686	440	Freshii	20.703327000000	-103.376936000000
900001890	144	El Jarro	20.673134000000	-103.379004000000
900001892	2694	El Rey de las Ahogadas	19.392688708492	-99.165953693866
900001893	2385	Tacos Manolo	19.390716000000	-99.157094000000
900001898	402	Mi Barrio	25.651105000000	-100.382875000000
900001900	199	Boca del Cielo la Rioja	20.568858000000	-103.458222000000
900001901	337	Boca del Cielo Centro	20.682257000000	-103.347888000000
900001903	612	Caleta Tepeyac	20.661990000000	-103.405165000000
900001907	2257	Pizza del Perro Negro - Del Valle	19.370749000000	-99.166352000000
900001912	1724	Carl's Jr. La Alianza	25.652991000000	-100.358757000000
900001912	132	Carl's Jr. La Alianza	25.652937807719	-100.358735542328
900001916	108	Happy's Pizza	19.402345000000	-99.270137000000
900001918	425	La Jugosa Kitchen	25.651092716149	-100.373672512900
900001930	168	Goiti	20.680123396766	-103.388604341105
900001932	399	León Chino	25.656005800000	-100.388715300000
900001934	241	Ninja Noodles	25.656013000000	-100.386508000000
900001935	483	La Pantera Fresca	19.396279000000	-99.258614000000
900001936	319	Panda Express - Patio Santa Fé	19.377542000000	-99.254656000000
900001936	220	Panda Express - Patio Santa Fé	19.377521757844	-99.254421306711
900001937	794	Panda Express - Salvador Agraz	19.359030452787	-99.278525789024
900001937	968	Panda Express Salvador Agraz	19.359030452787	-99.278525789024
900001938	313	Piero Cuccina & Barra	25.658226622825	-100.365244322570
900001945	3509	Chez Cocina Tradicional	25.651239000000	-100.373646000000
900002003	251	Tacos al Vapor Maria Elena	20.703552000000	-103.376995000000
900002007	377	Todo Empanadas Tanarah	25.653915000000	-100.348629000000
900002010	350	Le Gourmet Delicatessen	25.649690000000	-100.381732000000
900002013	249	Señor Bigotes	25.664544000000	-100.401519900000
900002127	429	Tosta Rica Valle	25.658527000000	-100.366038000000
900002139	149	El Rinconcito del Sabor	20.684374000000	-103.388677000000
900002142	356	Hamburguesada - Providencia	20.693669000000	-103.384102000000
900002144	1130	Caldos Ánimo - Río Elba	19.425235935089	-99.175153886491
900002145	226	Los Villa Grills Burgers Huixquilucan	19.416232000000	-99.269753000000
900002147	314	On Balance	25.653706102878	-100.360736976690
900002236	440	Jolly Molly Providencia	20.699982000000	-103.384094000000
900002239	267	Los Laureles Av. México	20.679499000000	-103.382852000000
900002248	2177	Hoku Poke Shop Plaza Nativa	25.659736442358	-100.416063285879
900002248	226	Hoku Poke Shop Plaza Nativa	25.659676000000	-100.416129000000
900002251	2485	Sanopecado Monraz	20.681918000000	-103.395512000000
900002262	3198	Temakita	25.647304000000	-100.360420000000
900002264	1021	El Tizoncito Del Valle	19.383756000000	-99.169761000000
900002266	1305	El 32 - Casual Kitchen Nativa	25.659563000000	-100.416149000000
900002266	120	El 32 - Casual Kitchen Nativa	25.659647619373	-100.415831158232
900002329	295	Fresh Salads Chapultepec	20.673543000000	-103.370129000000
900002331	638	Blatt Salat Haus Centrito Valle	25.658252000000	-100.364904000000
900002332	353	Taqueria Minerva	20.674788000000	-103.389391000000
900002336	110	El Fogoncito Lomas Plaza	19.429663000000	-99.206167000000
900002338	468	Blatt Salat Paseo Tec	25.654839000000	-100.293129000000
900002340	397	Blatt Salat Haus San Agustín	25.650570000000	-100.338436000000
900002344	416	Pane Envía Coyoacán	19.333800000000	-99.145924000000
900002345	1244	Pane Envía Del Valle Sur	19.374346558843	-99.179021408275
900002352	123	Aguas Frescas Chaplin	20.689126000000	-103.377177000000
900002353	454	Pollos Río Lomas Plaza	19.430450000000	-99.207141000000
900002356	2027	Super Salads Centro Magno	20.673865941146	-103.380694520170
900002357	415	Super Salads Gran Plaza	20.673498000000	-103.404736000000
900002361	976	Buffalos Hot Wings	25.658457392461	-100.355858011660
900002368	354	Verdelima	25.661074000000	-100.367947000000
900002368	1750	Verdelima	25.660964600537	-100.367971810433
900002369	144	Dolce Vita	20.673375000000	-103.378009000000
900002372	213	Partners & Brothers	20.691081000000	-103.387057000000
900002385	299	Lonches Gemma Gran Plaza Fundadores	20.673589000000	-103.405104000000
900002386	534	Common Bowlery	25.633757000000	-100.363535000000
990002023	266	Ahogadas las Picozas	20.696683000000	-103.382870000000
990002035	592	La Paloma	20.673408000000	-103.375019000000
990002037	2202	Nectarworks	25.650005000000	-100.329407000000
990002039	650	El Colibrí	20.622170000000	-103.425057000000
990002064	1213	Las Alitas Vasconcelos	25.655640942243	-100.386572612270
990002065	890	Las Alitas Las Torres	25.647227000000	-100.327201000000
990002066	329	Las Alitas Valle Oriente	25.638444000000	-100.313994000000
990002068	440	Las Alitas Contry	25.639699206871	-100.286669002650
990002083	210	Red Spot Pizza	25.660272000000	-100.367531000000
990002083	311	Red Spot Pizza	25.660162599801	-100.367416335565
990002084	737	Pane Envía Tecamachalco	19.430259000000	-99.224595000000
990002085	196	Santa Clara	20.697320000000	-103.383007000000
990002086	588	Panem Bakery & Bistro Avanta	25.657546000000	-100.389276000000
990002088	318	Sushi Pop - Prado Norte	19.427157000000	-99.211879000000
990002089	509	Jolly Molly Chapalita	20.665602000000	-103.408665000000
990002090	532	Pollo Pepe Providencia	20.688562000000	-103.385519000000
990002093	1104	Orson Metropolitan	25.650553000000	-100.333514000000
990002149	151	Delicias en Baguette	19.402762000000	-99.270151000000
990002152	199	Wabba	20.708293000000	-103.368514000000
990002153	163	Gambinos	20.701712000000	-103.376294000000
990002364	327	Sushi - Tlán	20.668742000000	-103.368260000000
990002365	611	Pane Envía Pedregal	19.328986000000	-99.210146000000
990002366	472	Pane Envía Santa Fe	19.360488813918	-99.254996292921
990002373	648	El Agasajo Rosario	25.655085000000	-100.385195000000
990002374	189	El Agasajo Plaza Siena	25.637854598793	-100.316326601330
990002377	317	Jugen	25.642847000000	-100.361686000000
990002379	395	San Carlos	25.652922000000	-100.354947000000
990002381	960	Lonches el Pesebre Providencia	20.695046000000	-103.384017000000
990002383	288	Pollo Pepe Chapalita	20.662195000000	-103.407654000000
990002388	236	Fit For You	20.698608000000	-103.377501000000
990002389	292	El Chef Va	19.395612840928	-99.157104253967
990002416	270	Pollo Pepe Copérnico	20.631424000000	-103.424685000000
990002417	201	Pollo Pepe Ciudad Judicial	20.681329000000	-103.454772000000
990002418	237	Pollo Pepe Andares	20.710442000000	-103.411692000000
990002421	155	Donas Donuts Ajijic	20.661323000000	-103.404652000000
990002424	584	Nikkori Sushi Express Valle	25.658921000000	-100.367605000000
990002429	120	Todo Empanadas Providencia	20.699982000000	-103.384231000000
990002434	557	Nikkori Sushi Cumbres	25.739362000000	-100.405796000000
990002436	705	Jac & Ray Sucursal Centrito	25.660016000000	-100.364958000000
990002437	136	Wingman - Lapizlazuli	20.641384000000	-103.390887000000
990002438	714	Nikkori Via Cordillera	25.658260000000	-100.440312000000
990002440	799	Nikkori Sushi Valle Oriente	25.637227000000	-100.311429000000
990002442	141	Lavanda Crepería	20.695750000000	-103.379468000000
990002485	517	Tortas Las Sevillanas	25.652301000000	-100.360976000000
990002486	104	Johnny Rockets San Agustín	25.649299000000	-100.335231000000
990002491	431	Raw Republic	19.391564000000	-99.259830000000
990002493	525	Tacos Lara	25.687261000000	-100.352598000000
990002493	527	Tacos Lara	25.687245288618	-100.352552402447
990002498	228	Kebabes by Lahm Centrito	25.659700000000	-100.366695000000
990002499	240	Pizzalianni's Express - Narvarte	19.388213483998	-99.147908495701
990002508	877	Jac & Ray Sucursal Valle Poniente	25.657423000000	-100.411093000000
990002509	785	Nikkori Sushi San Jerónimo 	25.675143000000	-100.365101000000
990002514	465	Furter Hot Dogs	20.672780000000	-103.365783000000
990002516	747	Sushi Itto - Tecamachalco	19.425418000000	-99.232856000000
990002521	478	Sushi Itto - Pedregal	19.316330000000	-99.212341000000
990002525	846	El Farolito Pedregal	19.318182000000	-99.211509000000
990002531	380	Carnes de la Torre Patria	20.689870000000	-103.415984000000
990002534	134	Casa Kali	25.690821000000	-100.377571000000
990002537	2575	Tacos Focos Amarillos	25.653478000000	-100.380827000000
990002539	1469	Burritos Tijuana	25.659725000000	-100.367042000000
990002541	203	Dos Pollos Vasconcelos	25.659730000000	-100.395675000000
990002541	2263	Dos Pollos Express	25.659730000000	-100.395675000000
990002544	158	Wok & Wings Kosher	19.396362000000	-99.259049000000
990002545	257	Los Gonzalitos - Chapultepec	20.667809000000	-103.368803000000
990002554	117	El Rincón del Güero	19.428445000000	-99.225650000000
990002566	665	Super Salads Galerias	20.676127000000	-103.431077000000
990002575	505	Tacos El Pata	25.707516000000	-100.372053000000
990002575	539	Tacos el Pata- Paseo de los Leones	25.707516000000	-100.372053000000
990002576	592	Kimono	20.698253490915	-103.382736775460
990002603	393	Mr. Sushi - Tecamachalco	19.428215000000	-99.226395000000
990002609	201	La Via	20.678286000000	-103.398467000000
990002613	255	Mr. Sushi - Centro Santa Fe	19.361624000000	-99.273608000000
990002617	1374	IHOP - Pedregal	19.305382000000	-99.202389000000
990002620	326	Mr. Sushi - Prado Norte	19.428189000000	-99.209292000000
990002622	2411	NL Burger King Cordilleras	20.663358000000	-103.420586000000
990002623	2249	NL Burger King Plaza del Sol	20.649417000000	-103.402063000000
990002624	186	Pollo Pepe Pedregal	19.308333000000	-99.213589000000
990002626	1885	NL Burger King Patria	20.686426844837	-103.420537519010
990002634	1062	Burger King San Pedro	25.651122000000	-100.359042000000
990002658	590	Rincón Sonorense	25.658201000000	-100.365597000000
990002659	223	Mustard	25.701159000000	-100.370645000000
990002667	132	Don Carbón	25.732883827852	-100.397575291020
990002710	296	Lonches Amparito Matutino	20.695461000000	-103.386497000000
990002711	604	Brugge Paninis and Crepes Gomez Morín	25.647215000000	-100.358792000000
990002715	102	Cervecería Amparito	20.695461000000	-103.386497000000
990002745	1892	Starbucks Terranova	20.691907000000	-103.386899000000
990002753	362	Kepacrepa Universidad	19.374402000000	-99.162452000000
990002757	253	La Raclette Santa Fé	19.389661000000	-99.260175000000
990002758	225	La Raclette Lomas	19.430052000000	-99.223694000000
990002769	445	Pico de Gallo	19.389047000000	-99.140880000000
990002779	204	Poke'n Hele	20.699968000000	-103.383258000000
990002785	487	La Cochina FT	25.726600000000	-100.395084000000
990002869	337	El Tostadon	25.694288000000	-100.357527000000
990002884	346	Di Maria	20.661932000000	-103.406445000000
990002897	592	La Casa de Toño Magno Centro 	19.406819000000	-99.271599000000
990002897	1964	La Casa de Toño - Magno Centro 	19.406819000000	-99.271599000000
990002920	144	Tostichanwis	19.353981000000	-99.143943000000
990002925	382	Tortas Ahogadas MX Salamanca	19.420754000000	-99.169782000000
990002938	291	Burger Nation	25.635146000000	-100.364112000000
990002942	2062	Yo Taquero Revolución	19.366807243489	-99.188914548156
990002943	550	Yo Taquero Roma	19.403964212814	-99.162830431300
990002957	133	Paparruls Burger	19.370330000000	-99.149170000000
990002959	133	Humu	25.634762000000	-100.363433000000
990002966	178	Kukulkán - Narvarte	19.398413000000	-99.147758000000
990002971	511	La Pantera Fresca - Irrigación	19.442420000000	-99.209344000000
990002973	147	Casaxurro	20.672779000000	-103.365782000000
990002975	2566	Mr. Brown	25.686919000000	-100.376539000000
990002976	245	Mr. Brown Cumbres	25.732104048010	-100.396294860119
990002976	1989	Mr. Brown Cumbres	25.732365000000	-100.396319000000
990003001	104	Elefante Dorado	25.677241000000	-100.354144000000
990003020	157	Mariscos Rogelio	20.666413428347	-103.363336728840
990003029	663	IHOP Valle	25.653366000000	-100.358797000000
990003057	259	Café Society - Monte Libano	19.415841000000	-99.225157000000
990003069	627	Pizza Rev Humberto Lobo	25.656192000000	-100.385147000000
990003071	225	Café Society - Antara	19.439481000000	-99.203035000000
990003103	212	Chilaquería de Barrio	19.372743000000	-99.278364000000
990003116	1369	Starbucks Jardines Vallarta	20.682400000000	-103.428479000000
990003117	758	Starbucks Ciudad Granja	20.681803000000	-103.446033000000
990003118	751	Starbucks Sania 38660	20.675365000000	-103.393050000000
990003119	1542	Starbucks Ávila Camacho	20.715618000000	-103.379819000000
990003120	1476	Starbucks Copernico	20.630121000000	-103.422364000000
990003128	1586	El Japonez - Polanco	19.430619000000	-99.198338000000
990003129	739	Arroz con Leche	19.438080000000	-99.170662000000
990003131	163	Vegan Inc Miyana	19.440997000000	-99.200450000000
990003133	594	Magic Prime	19.362837000000	-99.189449000000
990003137	221	El Ocho Café Recreativo - Condesa	19.410307940480	-99.170009042992
990003139	231	Johnny Rockets Ciudadela	20.649017000000	-103.420467000000
990003141	136	Mongo	19.301904034519	-99.196272552254
990003144	149	Le Garraf Andares	20.709924000000	-103.412293000000
990003151	496	El Japonez - Oasis	19.345350000000	-99.178908000000
990003195	164	Balboa - Moctezuma	20.650338000000	-103.421360000000
990003196	223	Frutens	19.308449000000	-99.213437000000
990003198	103	La Morena	19.412872000000	-99.174901000000
990003207	199	Lupes BBQ Sao Paulo	20.701857655233	-103.376223647239
990003207	772	Lupes BBQ Sao Paulo	20.701884000000	-103.376227000000
990003208	748	Lupes BBQ Toscana	20.729953000000	-103.432901000000
990003208	180	Lupes BBQ Toscana	20.729557525701	-103.433110676339
990003219	264	Nonna	19.410744000000	-99.168172000000
990003255	337	Burritos México - Polanco.	19.431977557359	-99.190984965147
990003255	2223	Burritos México - Polanco.	19.432553000000	-99.186389000000
990003263	157	Sushi Itto - Satélite	19.510386585519	-99.233991705696
990003264	1147	Starbucks Patio Patria	20.705872000000	-103.414666000000
990003277	152	Hamburguesería Central	20.673560000000	-103.365883000000
990003278	139	La Borra del Café Americana	20.679774000000	-103.382551000000
990003288	635	Vancouver Wings Guadalupe	20.659362000000	-103.441542000000
990003289	467	IHOP Park Point	25.738507000000	-100.405059000000
990003290	979	Los Gyros	25.659870000000	-100.366030000000
990003294	670	Cassava Roots Las Aguilas	19.358964000000	-99.198170000000
990003295	379	Daiichiro Santa Tere	20.684817000000	-103.364305000000
990003308	136	Boicot Café Tamaulipas	19.409689000000	-99.175895000000
990003319	227	Sushi Itto - Espacio Interlomas	19.395254700000	-99.289143700000
990003330	275	La Pescadería - Río Lerma	19.428032000000	-99.170118000000
990003334	145	La Provoleta - Río Lerma	19.430376000000	-99.164282000000
990003335	745	Tacos al Vapor Maria Elena Estancia	20.667309000000	-103.424684000000
990003339	199	Alas Wings Morelos	20.676058000000	-103.369562000000
990003343	631	Vecchio Forno	19.418679000000	-99.175225000000
990003344	1390	Butchers Express	25.654837000000	-100.358295000000
990003349	1660	Starbucks Minerva	20.673706000000	-103.388266000000
990003350	2061	Starbucks Valle Real	20.730253000000	-103.441998000000
990003371	236	Crepes & Waffles Durango	19.419940000000	-99.167481000000
990003372	640	Crepes & Waffles Coyoacan	19.344845000000	-99.179248000000
990003373	1015	Eno - Virreyes	19.420639000000	-99.210664000000
990003374	967	Porco Rosso Miyana	19.438534000000	-99.200818000000
990003375	177	Porco Rosso Mercado Roma Coyoacán	19.345774000000	-99.174006000000
990003376	1050	Porco Rosso Condesa	19.410891000000	-99.178855000000
990003378	527	Porco Rosso Cuauhtémoc	19.431577000000	-99.169203000000
990003382	968	Carl's Jr - Universidad 767 (P)	19.373921000000	-99.163214000000
990003384	451	Carl's Jr - Parque Delta	19.402957000000	-99.154111000000
990003386	540	Porco Rosso Coyoacán	19.337942000000	-99.147807000000
990003397	251	Boicot Café Jalapa	19.418679000000	-99.161299000000
990003399	130	Matilda	20.658290000000	-103.414781000000
990003401	121	La Pescaderia Roma	19.416727000000	-99.169576000000
990003403	228	La Pescadería - Nápoles	19.388210000000	-99.175646000000
990003404	104	The Rooster Kitchen - Ladrón de Guevara	20.676679000000	-103.370243000000
990003405	311	The Rooster Kitchen - San Ignacio	20.666113000000	-103.404856000000
990003406	193	Público Comedor Moliere	19.431292000000	-99.202339000000
990003410	182	Lonches Gemma Fundadores La Estancia	20.667238000000	-103.424726000000
990003415	341	La Provoleta - Roma	19.420844000000	-99.170154000000
990003418	126	Cassava Roots - Plateros	19.369164958599	-99.193053093254
990003419	620	Cassava Roots - Universidad	19.367460000000	-99.164724000000
990003421	407	Cassava Roots Zona Azul	19.504436000000	-99.248487000000
990003423	262	Los Pirris	19.398091000000	-99.157988000000
990003428	2114	Orale Arepa	19.431972000000	-99.186031000000
990003432	283	Acá las Tortas Arcos Vallarta	20.673560000000	-103.386179000000
990003433	119	Alafandi	20.684184000000	-103.393545000000
990003434	102	Alafandi Chapalita	20.661334000000	-103.400053000000
990003439	1321	El Japonez - Condesa	19.411076000000	-99.173440000000
990003440	971	Flautas - Prado Norte	19.427786000000	-99.211479000000
990003444	809	Flautas Bosques	19.391978000000	-99.259858000000
990003452	367	Barbacoa Las Águilas	19.349025000000	-99.226038000000
990003460	386	El Farolito Tecamachalco	19.428359000000	-99.226748000000
990003465	4928	Taco Naco - Condesa Roma	19.408432000000	-99.167361000000
990003466	3386	Taco Naco - Condesa Chapultepec	19.416572156784	-99.178687122684
990003467	6112	Taco Naco - San Rafael	19.437164230098	-99.157064982803
990003469	228	Café Providencia Chapultepec	20.674220000000	-103.368933000000
990003474	324	Sushi 1 One - Satelite	19.513139000000	-99.231976000000
990003481	271	Café Providencia Rubén Darío	20.683451000000	-103.385118000000
990003482	325	Café Providencia Guadalupe	20.662647000000	-103.419918000000
990003483	338	Café Providencia Copérnico	20.629108000000	-103.422005000000
990003488	1496	Buffalo Wild Wings San Pedro	25.652390000000	-100.340014000000
990003490	802	La Buena Tierra - Oasis	19.345927000000	-99.178919000000
990003493	1190	La Burreria Satelite	19.513659000000	-99.252273000000
990003509	4626	PoiPoi Kings - Chapalita	20.655237000000	-103.425578000000
990003511	515	Buffalo Wild Wings Cumbres	25.697312000000	-100.353927000000
990003512	527	Buffalo Wild Wings Galerías	25.682796000000	-100.355164000000
990003515	3336	Los Chilakos - Roma	19.420768000000	-99.169989000000
990003516	1783	Los Chilakos - Bosques	19.387043000000	-99.252132000000
990003519	430	Mi Sushi - Lerma	19.428695000000	-99.168782000000
990003520	362	Mi Sushi Panuco	19.430550000000	-99.167981000000
990003521	438	Krispy Kreme - Ampliación Santa Fe	19.360788000000	-99.275206000000
990003522	791	Krispy Kreme - Interlomas	19.402284418391	-99.271498626984
990003523	309	Krispy Kreme - San Jerónimo	19.331011866766	-99.208245186508
990003524	480	Krispy Kreme - Miguel Angel de Quevedo	19.343609000000	-99.153180000000
990003525	444	Krispy Kreme - Parque Delta	19.402856000000	-99.154112000000
990003546	431	Panmex Polanco	19.440554000000	-99.208703000000
990003551	1147	El Japonez - Santa Fe	19.360175244313	-99.280043060188
990003555	628	Tandoor - Condesa	19.414321000000	-99.169912000000
990003556	325	Tortas Bernal	25.680197000000	-100.364725000000
990003559	612	Panmex Pedregal	19.331800000000	-99.206651000000
990003563	522	Koto Sushi	25.710318000000	-100.375789000000
990003564	116	Theurel & Thomas	25.658439000000	-100.372851000000
990003624	382	Pollo Pepe - Jardines del Valle	20.748614000000	-103.428385000000
990003626	178	Premium Wing´s Lapizlazuli	20.646380000000	-103.404475000000
990003627	198	Tamales Flor de Lis - Condesa	19.416526000000	-99.175565000000
990003632	176	Tamales Flor de Lis - Guadalupe	19.361388000000	-99.185163000000
990003633	121	Tamales Flor de Lis - Bosques de las Lomas	19.390527000000	-99.259518000000
990003634	267	Tamales Flor de Lis - Polanco	19.438091000000	-99.199244000000
990003635	135	Tamales Flor de Lis - Del Valle	19.373310000000	-99.169305000000
990003641	686	China Shing Polanco	19.432273000000	-99.183333000000
990003650	1269	Uncle Beef Valle Real	20.729993000000	-103.438874000000
990003659	203	Café Barbera	20.699854000000	-103.384339000000
990003666	728	Chilaquiles Poncho Chapalita	20.666697000000	-103.404646000000
990003673	212	Sushi Itto - WTC	19.394124000000	-99.174016000000
990003681	195	Pizzalianni's Express - Zona Rosa	19.429301000000	-99.160122000000
990003686	1291	Walú Poke Bowls	19.441232000000	-99.192246000000
990003687	160	Los Aguachiles	25.645383000000	-100.355733000000
990003688	257	Señor Tanaka	25.657072000000	-100.370960000000
990003690	1171	Burger King Gustavo Baz	19.495543434803	-99.227052597553
990003708	244	Farmville La Aurora	25.649790000000	-100.329545000000
990003711	164	Terraza Petra	20.673536000000	-103.372074000000
990003717	175	Sólo Flautas	19.329642000000	-99.210017000000
990003723	3534	Mirai San Agustín	25.652149000000	-100.338208000000
990003725	256	Farina - Polanco	19.430758353825	-99.191853488430
990003728	540	Cuarto de Kilo - Providencia	20.694967091399	-103.383909358301
990003730	198	Cluny - San Angel	19.346481000000	-99.189405000000
990003736	1345	Burger King Águilas 	19.359074000000	-99.197648000000
990003737	123	La Ahogadería Naciones Unidas	20.689197000000	-103.428810000000
990003751	498	Cuarto de Kilo Paseos del Sol	20.634356000000	-103.426468000000
990003752	324	Cuarto de Kilo Pedro Loza	20.679866000000	-103.348465000000
990003753	269	Cuarto de Kilo Galeana	20.674715000000	-103.348950000000
990003755	298	Cuarto de Kilo Santa Tere	20.684239000000	-103.367278000000
990003781	118	The Rooster Kitchen - Arcos	20.667532000000	-103.384869000000
990003804	166	Pays Coronado Satélite	19.511647000000	-99.231203000000
990003806	2891	Kampai	25.650408000000	-100.354939000000
990003807	112	Hokkaido Sushi	20.681647000000	-103.385477000000
990003808	140	Los Chilaquiles Patria	20.698554000000	-103.415738000000
990003808	140	Los Chilaquiles Patria	20.698717717404	-103.415709166253
990003809	120	Los Chilaquiles Lázaro Cardenas	20.660141274288	-103.386131886491
990003809	124	Los Chilaquiles Lázaro Cardenas	20.660135000000	-103.386209000000
990003814	145	Amores Tres23	19.393265000000	-99.164114000000
990003824	987	El Papalote Taco & Grill San Jerónimo	25.673582300000	-100.366438500000
990003830	309	Lupes BBQ Chapalita	20.663326542953	-103.402778571181
990003830	1162	Lupes BBQ Chapalita	20.663218000000	-103.402680000000
990003845	606	Zona de los Azulejos	19.505406000000	-99.247973000000
990003847	262	Burger Army	25.663092000000	-100.404272000000
990003854	1572	El Papalote Taco & Grill Delivery Valle	25.657242000000	-100.395810000000
990003862	126	El Alfajor San Jeronimo	19.327948000000	-99.210935000000
990003866	1099	Faro Di Capuleto Garza Sada	25.652649000000	-100.294376000000
990003872	927	Dairy Queen Valle	25.661493689720	-100.383226022500
990003875	547	Dairy Queen Plaza Fiesta	25.650195756053	-100.338456968260
990003877	378	Distrito Wok Valle Real	20.732813000000	-103.431670000000
990003879	456	Dairy Queen Cumbres	25.714339266611	-100.380938841310
990003881	180	Tamashi Valle Real	20.730036000000	-103.431672000000
990003882	363	Tamashi Chapalita	20.666559000000	-103.400236000000
990003889	121	Woke Poke - Chapalita	20.668238000000	-103.409604000000
990003905	1260	Pane Envía Condesa	19.405345918685	-99.169236466270
990003909	214	Creta Pizza - Iteso	20.612275000000	-103.416047000000
990003910	122	Which Which - Polanco	19.440767813325	-99.206706725201
990003914	1335	Dairy Queen Abedules	20.678413000000	-103.404945000000
990003915	982	Dairy Queen Chapalita	20.667151000000	-103.402376000000
990003920	1818	Dairy Queen Plaza Patria	20.712424000000	-103.377664000000
990003921	2777	Dairy Queen Providencia	20.699775000000	-103.385363000000
990003922	1963	Dairy Queen Arboledas	20.648851000000	-103.385609000000
990003923	1492	Dairy Queen Galerias	20.676917000000	-103.432143000000
990003924	959	Dairy Queen Ciudad Granja	20.682236000000	-103.445976000000
990003925	906	Dairy Queen Gran Plaza	20.672968000000	-103.404131000000
990003926	2952	Dairy Queen Valle Real	20.729563000000	-103.433311000000
990003927	2166	Dairy Queen Cordilleras	20.660701000000	-103.423914000000
990003930	246	Churrería El Moro - Condesa	19.411111000000	-99.168571000000
990003930	2835	Churrería el Moro - Condesa	19.411111000000	-99.168571000000
990003932	1488	Churrería El Moro - Centro	19.431498000000	-99.141058000000
990003935	318	Pizzería Nº 7	20.642690000000	-103.432697000000
990003936	1188	Panda Express - Lomas Verdes	19.496380000000	-99.247168000000
990003936	622	Panda Express - Lomas Verdes	19.495849031335	-99.247342343586
990003937	191	V Ramen Roma	19.416909000000	-99.165488000000
990003941	271	Teikit - Centro	19.434284000000	-99.145765000000
990003941	721	Teikit Centro	19.434284000000	-99.145765000000
990003949	889	Panda Express - Fórum Buenavista	19.447859000000	-99.152063000000
990003953	148	La Pibil Militar Marte	19.379286000000	-99.127792000000
990003953	977	La Pibil Militar Marte	19.379286000000	-99.127822000000
990003969	159	Vasto	25.649235000000	-100.335485000000
990003971	151	Chino Latino	25.655915000000	-100.361504000000
990003972	2369	The Food Box Nativa	25.659876000000	-100.416107000000
990003973	3906	The Food Box Tanarah	25.653709574888	-100.349228721570
990003974	179	Giandora	20.599189000000	-100.369253000000
990003975	3510	Toki Sushi Universidad	20.600602487926	-100.377298011660
990003976	912	Cardosanto	20.609338000000	-100.386141000000
990003977	348	Vivar Sushi	20.596583000000	-100.403879000000
990003978	298	Tortas San Javier	20.599549000000	-100.381558000000
990003981	188	Tessito Alamos	20.609700000000	-100.387473000000
990003986	570	Cheese Up Pizza Las Americas	20.587891000000	-100.374500000000
990004704	668	Dairy Queen La Aguilas	20.627876489752	-103.418656186508
990004704	1461	Dairy Queen La Aguilas	20.627879000000	-103.418624000000
990004705	871	Dairy Queen Plaza del Sol	20.650890000000	-103.401436000000
990004714	449	Tortas Locas Hipocampo - Fuentes de Satélite	19.517356000000	-99.250058000000
990004723	211	Carnes de la Torre Santa Tere	20.681137000000	-103.366910000000
990004726	707	Cuarto de Kilo Palomar	20.588418000000	-103.444651000000
990004728	3138	The Food Box Micropolis	25.634238962966	-100.282143497910
990004729	970	Sliders - Barrio Santa Fe	19.368343000000	-99.260002000000
990004732	612	Cafeto Chapalita	20.661583000000	-103.408060000000
990004735	262	 Sonora Street Food	19.408173000000	-99.161794000000
990004746	244	Le Garraf Providencia	20.697316000000	-103.390033000000
990004747	413	Le Garraf Chapalita	20.665607000000	-103.408658000000
990004748	417	Le Garraf Toscana	20.729242000000	-103.433395000000
990004750	372	Jia Wang	20.590247000000	-100.405112000000
990004754	659	Mirai Paseo Tec	25.654030563347	-100.293485099371
990004754	1384	Mirai Paseo Tec	25.654117000000	-100.293583000000
990004758	493	Dairy Queen Contry	25.626596137740	-100.276404813490
990004759	365	Dairy Queen Nuevo Sur	25.653487000000	-100.276437000000
990004762	542	Maison Paulette Providencia	20.687897000000	-103.395584000000
990004763	719	Maison Paulette Valle Real	20.729224000000	-103.433244000000
990004811	855	Buffalo Wild Wings Contry	25.638739016384	-100.286108376330
990004813	331	Tacos Arabes Jair Ala	20.590287000000	-100.393167000000
990004816	263	Lonches Gemma Plaza del Sol Fundadores	20.649138000000	-103.403453000000
990004817	112	Carnitas Don Macizo	25.663554000000	-100.381757000000
990004861	119	Sushi Itto - Polanquito	19.430174034887	-99.197553038029
990004864	1943	Teikit Universidad	19.375731000000	-99.161428000000
990004864	619	Teikit - Universidad	19.375731000000	-99.161428000000
990004868	2246	Tokai Providencia II	20.700022000000	-103.383338000000
990004869	2116	Tokai Av. México	20.679307000000	-103.384597000000
990004870	1540	Tokai Mariano Otero	20.639388000000	-103.418050000000
990004871	932	Tokai Chapalita	20.665320000000	-103.406984000000
990004872	1218	Tokai Puerta de Hierro	20.706055000000	-103.414882000000
990004874	2298	Tokai Valle Real	20.730723000000	-103.443018000000
990004876	1531	Tokai Virreyes	20.688875000000	-103.426795000000
990004877	559	Santino Polanco	19.431333234108	-99.188735171793
990004883	353	Oriental Wok Leones	25.704374000000	-100.368489000000
990004884	725	Carl's Jr  Pedregal (S)	19.305797263910	-99.203166220902
990004884	236	Carl's Jr. - Pedregal (S)	19.305544125543	-99.202891294478
990004884	1778	Carl's Jr. - Pedregal (S)	19.305797263910	-99.203166220902
990004885	1150	Carl´s Jr. - Satélite (S)	19.486087513676	-99.234512406082
990004885	496	Carl´s Jr - Satélite (S)	19.486087513676	-99.234512406082
990004886	278	Oriental Wok Valle Oriente	25.638666000000	-100.315544000000
990004890	215	Red Wings	20.613867000000	-100.410085000000
990004892	145	Gino's - Galerías Insurgentes	19.370970000000	-99.177799000000
990004893	676	Oriental Wok Galerias Monterrey	25.681133000000	-100.355689000000
990004894	225	Oriental Wok Plaza Fiesta San Agustin	25.649881000000	-100.338577000000
990004895	537	Oriental Grill Chipinque	25.628311000000	-100.364324000000
990004896	310	Oriental Grill Pueblo Serena	25.576380000000	-100.248468000000
990004898	775	Oriental Grill San Jerónimo	25.674722000000	-100.363576000000
990004898	123	Oriental Grill San Jerónimo	25.675480000000	-100.364021000000
990004899	555	Oriental Wok Gómez Morín	25.647130000000	-100.358862000000
990004901	116	Spaveggi	25.652634100000	-100.340599500000
990004901	539	Spaveggi	25.653402969899	-100.341742121040
990004902	311	Teikit - Acoxpa	19.297485000000	-99.137224000000
990004902	1082	Teikit Acoxpa	19.297485000000	-99.137224000000
990004915	780	Cheese Up Pizza Plaza del Parque	20.615137000000	-100.392094000000
990004917	264	Fritanga	20.609730000000	-100.387500000000
990004918	152	La Doña de Holbein	19.380958000000	-99.184386000000
990004919	504	IHOP - Contry	25.638739016384	-100.286108376330
990004925	810	Cheese Up Pizza Hidalgo	20.592056000000	-100.400353000000
990004943	1690	Good Food	20.589412000000	-100.373435000000
990004948	1371	Carl´s Jr. Humberto Lobo	25.665026352671	-100.381755601200
990004950	101	Porco Rosso Mundo E	19.525843599471	-99.228287132610
990004951	1001	Carl´s Jr. San Agustín	25.651914000000	-100.338006000000
990004953	1089	Carl´s Jr. Valle Oriente	25.639139000000	-100.314768000000
990004957	378	Nikkori Sushi Nuevo Sur	25.653864000000	-100.276387000000
990004958	1120	Carl´s Jr. Contry	25.639208000000	-100.285421000000
990004960	140	Veggie Happy	20.596202000000	-100.399421000000
990004961	955	Carl´s Jr. Cumbres	25.697276000000	-100.353525000000
990004962	1475	Carl´s Jr. Plaza Cumbres	25.732217000000	-100.396015000000
990004963	399	Chilaking Epigmenio	20.613289000000	-100.398742000000
990004963	1310	Chilakiles Premium Epigmenio	20.613289000000	-100.398742000000
990004964	1846	Don Kebab Satélite	19.513238675721	-99.246088645508
990004969	126	Jack´s Butcher - Mercado Roma	19.414253000000	-99.164613000000
990004970	391	Carl´s Jr. Paseo TEC	25.655008253641	-100.292787963125
990004970	858	Carl´s Jr. Paseo TEC	25.654376000000	-100.293197000000
990004975	624	Carl´s Jr. Galerías Monterrey	25.681139000000	-100.354996000000
990004976	721	Carl´s Jr. Gonzalitos	25.676084000000	-100.351943000000
990004981	218	TacoBurro Fast Food	19.358536000000	-99.128855000000
990004983	269	Sonambula - Vallarta	20.672899000000	-103.388707000000
990004991	349	Altamar Loma Bonita	20.636338000000	-103.397618000000
990004992	119	Querida Lima	25.658885000000	-100.357874000000
990004994	119	Kunai Roll	20.721908000000	-103.381920000000
990004998	3282	Mr. Brown Garza Sada	25.640144000000	-100.286040000000
990004999	437	Menudo y Gorditas Magui	20.669254000000	-103.428313000000
990005008	1133	El Papalote Taco & Grill San Agustín	25.653280000000	-100.344562000000
990005013	541	Jac & Ray Bosques del Valle	25.651064000000	-100.374203000000
990005013	601	Jac & Ray Bosques del Valle	25.650915300934	-100.374052796295
990005014	1624	Jac & Ray Sucursal Vista Hermosa	25.688858000000	-100.352129000000
990005016	690	McCarthy´s - Nápoles	19.398883000000	-99.170995000000
990005023	137	SushiDonuts GG	20.689631000000	-103.427155000000
990005024	428	Bubble Tea Providencia	20.696320000000	-103.389931000000
990005025	255	Bubble Tea Galerias	20.677012000000	-103.432072000000
990005032	1137	El Papalote Taco & Grill Valle	25.656396000000	-100.361556000000
990005033	485	Bait Lajam Tacos Árabes	20.687580000000	-103.424679000000
990005036	1147	Tacos al Pastor la Güera - EL Colli	20.638460000000	-103.419433000000
990005039	1317	Panda Express - Insurgentes	19.357637497550	-99.184478942467
990005040	322	Taller Veganico	25.650714000000	-100.382877000000
990005066	199	Frankfurt - Condesa	19.409975000000	-99.175588000000
990005077	220	Juice Bar	20.680034000000	-103.382286000000
990005088	2281	Pakeshi	20.609416000000	-100.399341000000
990005100	324	Sushi Itto - Perisur	19.303971000000	-99.190067000000
990005101	259	Mr. Sushi - Masaryk	19.431570000000	-99.196409000000
990005102	243	Tkai Shino Sushi La Estancia	20.673075000000	-103.426382000000
990005104	593	Daisuki Satélite	19.516270000000	-99.238561000000
990005112	484	Galactic Pizza	20.678218000000	-103.420676000000
990005114	245	Nacho Cruz	25.660141000000	-100.366096000000
990005114	285	Nacho Cruz	25.660277000000	-100.365964000000
990005117	163	Blendr Juicery Gómez Morín	25.645676000000	-100.360643000000
990005119	702	Shaka 808 - Santa Fe	19.357783000000	-99.283463000000
990005121	365	Chilim Balam - Polanco	19.438374000000	-99.207226000000
990005122	285	Chilim Balam  Santa Teresa	19.306833000000	-99.210648000000
990005123	219	Chilim Balam Magnocentro	19.402206700000	-99.271625000000
990005125	122	Chilim Balam Tienda Satelite	19.509720000000	-99.233979000000
990005128	249	Chilim Balam - Santa Fe II	19.365350000000	-99.268780000000
990005129	101	Frankfurt - Salamanca	19.420697000000	-99.169862000000
990005132	109	Frankfurt - Polanco	19.433510823389	-99.185275658895
990005133	207	Chilim Balam - Kiosco Reforma 222	19.429038800000	-99.162083300000
990005134	145	Chilim Balam - Oasis Coyoacán	19.345720000000	-99.180680000000
990005135	106	Chilim Balam - Kiosco Portal San Angel	19.360830000000	-99.189640000000
990005138	125	Chilim Balam - Kiosco Arcos Bosques	19.388225200000	-99.251804800000
990005139	161	Chilim Balam Plaza Universidad	19.367800000000	-99.166370000000
990005141	207	Butcher & Sons - Alameda	19.436318000000	-99.146398000000
990005142	552	Butcher & Sons - Pedregal	19.316184000000	-99.212500000000
990005143	1757	Butcher & Sons - Polanco	19.430370000000	-99.197248000000
990005182	133	Magic Prime Campestre	19.349039077759	-99.130531311035
990005185	903	Belmondo	19.419724000000	-99.157738000000
990005188	2291	Broken Cheese Chapultepec	20.675593000000	-103.367800000000
990005189	3036	Broken Cheese Tepeyac	20.659020000000	-103.414071000000
990005190	2584	Broken Cheese San Jorge	20.718408000000	-103.374660000000
990005191	497	Subway - Reforma	19.436429000000	-99.147597000000
990005195	2900	Sushi Express Providencia	20.686837000000	-103.385092000000
990005196	2217	Sushi Express La Estancia	20.677497397741	-103.421519901783
990005197	160	Sushi Express (La Calma)	20.635760000000	-103.415732000000
990005197	2589	Sushi Express La Calma	20.635760000000	-103.415732000000
990005198	1678	Sushi Express Nueva Galicia	20.570636000000	-103.440000000000
990005201	460	Oriental Wok Plaza las Villas	25.608623000000	-100.268726000000
990005203	300	Hamburguesas Ke-Toro	20.638274000000	-103.419686000000
990005204	2510	Tortas Willys	20.593406000000	-100.392648000000
990005210	2298	Taquería Chemao	20.585156000000	-100.390488000000
990005212	456	Lapa Lapa	20.599127881092	-100.374365670552
990005212	882	Lapa Lapa	20.599185000000	-100.374365000000
990005222	411	Hot Dogs La Congregación - La Cruz	20.595976000000	-100.386047000000
990005223	951	Take A Wok - Del Valle	19.395623000000	-99.171520000000
990005224	178	We Love Burgers - Milan	19.429920000000	-99.156810000000
990005225	1675	We Love Burgers Cuauhtémoc	19.428592000000	-99.169119000000
990005227	605	Take A Wok - Zona Rosa	19.429051000000	-99.159262000000
990005231	206	Take A Wok Centro Histórico	19.433339000000	-99.144959000000
990005233	161	Buffalo Pizza Tec	25.649810000000	-100.294448000000
990005234	253	La Boccatería	20.704886000000	-103.376689000000
990005241	2226	Chez Cocina Tradicional Trébol Park	25.651833364975	-100.333680552250
990005243	165	Pollo Feliz Zaragoza	20.586183000000	-100.398752000000
990005244	120	Seis Chiles	25.665522000000	-100.407929000000
990005245	190	Pizza Amore - City Shops	19.372914000000	-99.172805000000
990005247	263	Tacos al Vapor Maria Elena Las Aguilas	20.630176000000	-103.413056000000
990005248	1686	Tacos Juan - Prados Vallarta	20.684779000000	-103.390819000000
990005263	492	Churrería del Carmen	19.345923000000	-99.189672000000
990005268	345	El Bajío Miyana	19.440411000000	-99.200562000000
990005272	1774	IHOP - Universidad	19.365734000000	-99.166604000000
990005278	215	El Moreno Tortas Ahogadas	20.666664000000	-103.394715000000
990005280	3172	Super Salads Gómez Morín	25.647911000000	-100.358672000000
990005281	144	Cabo Grill Gómez Morín	25.648489000000	-100.359725000000
990005299	309	Koi Japanese Food	20.686818000000	-103.369592000000
990005300	747	Carl's Jr. - Buenavista (S)	19.447318431990	-99.152559997519
990005300	309	Carl's Jr - Buenavista (S)	19.447541000000	-99.152733000000
990005304	2311	Burger King Garza Sada	25.645631804478	-100.288117986720
990005305	153	Buffalo Wild Wings Juriquilla	20.691278000000	-100.436716000000
990005310	235	The Burger Shop	20.722730000000	-103.371232000000
990005311	159	Tosta Rica Plaza Real	25.679376000000	-100.350471000000
990005312	340	Buffalucas QRO	20.614223000000	-100.387293000000
990005315	2052	Super Salads Contry	25.637010000000	-100.285635000000
990005315	380	Super Salads Contry	25.636840729085	-100.285637682209
990005316	173	Super Salads San Jerónimo	25.674264000000	-100.363295000000
990005316	1591	Super Salads San Jerónimo	25.674153000000	-100.363316000000
990005317	568	Super Salads Cumbres	25.696580000000	-100.352151000000
990005317	1437	Super Salads Cumbres	25.696593200000	-100.352152400000
990005317	198	Super Salads Cumbres	25.696630151626	-100.352034994460
990005322	770	El Papalote Taco & Grill Contry	25.631813000000	-100.272565000000
990005324	368	Jac & Ray Sucursal Valle Oriente	25.637303000000	-100.311481000000
990005329	751	Burger King  Nuevo Sur	25.653250396817	-100.276293404080
990005333	275	Vips - Mariano Otero 81167	20.643314000000	-103.415200000000
990005334	142	Vips - Guadalajara Arboledas 81095	20.648748000000	-103.384716000000
990005335	198	Vips - Plaza del Sol 81059	20.650611000000	-103.402526000000
990005336	489	Vips -  Guadalajara Vallarta 81063	20.679718000000	-103.431033000000
990005338	489	Vips - Guadalajara Plaza México 81030	20.678666000000	-103.395229000000
990005342	180	Vips - Gonzalitos 81116	25.708608000000	-100.350772000000
990005343	763	Vips - Monterrey  Del Valle 81094	25.659068000000	-100.370443000000
990005345	257	Vips - Monterrey Gómez Morin 81261	25.645542012884	-100.362289306880
990005346	383	Vips - Cumbres Mty 81265	25.727781000000	-100.393242000000
990005347	306	Vips - Paseo de los Leones 81093	25.699630928270	-100.362796485550
990005348	358	Vips - Monterrey Constitución 81157	25.669240000000	-100.339009000000
990005360	547	J Poke Point	25.653004000000	-100.352384000000
990005361	469	Vips - La Silla 81153	25.636260569247	-100.282386910030
990005368	751	Subway Gran Terraza	19.495784000000	-99.247070000000
990005374	136	Subway Lomas Plaza	19.430207000000	-99.205970000000
990005375	113	Subway Portal San Ángel	19.361096000000	-99.189577000000
990005443	162	Sonora´s Meat Naciones Unidas	20.687249000000	-103.422590000000
990005444	211	Sonora´s Meat Valle Real	20.730219000000	-103.440281000000
990005445	141	Sonora´s Meat Providencia	20.699421000000	-103.375331000000
990005451	285	Dogos Nainari Tchaikovsky	20.664951000000	-103.437054000000
990005452	218	Dogos Nainari Valle Real	20.724038000000	-103.454497000000
990005460	299	Mr. Burro	19.356590468782	-99.259814857060
990005465	424	Subway Patria	20.671684000000	-103.423457000000
990005466	420	Subway Real Center	20.731459000000	-103.428956000000
990005473	297	Revolución Verde	25.646338000000	-100.275249000000
990005475	1299	La Chinampa Mixcoac	19.370880000000	-99.185872000000
990005476	1424	Super Salads Insurgentes	25.682912000000	-100.355606000000
990005476	103	Super Salads Insurgentes	25.681084564864	-100.354651133591
990005476	814	Super Salads Insurgentes	25.683226238668	-100.355144660050
990005477	1473	Las Alitas - Marina Nacional	19.439784000000	-99.177580000000
990005479	322	Subway Cruz del Sur	20.635307000000	-103.398831000000
990005485	1288	Super Salads Plaza Cumbres	25.731745000000	-100.395130000000
990005490	1977	Don Chamorro	20.598510000000	-100.386068000000
990005491	660	NL Burger King -Gigante Miramontes	19.310224675080	-99.124136674530
990005491	616	NL Burger King -Gigante Miramontes	19.322901000000	-99.133857000000
990005507	164	Day Light Salads Insurgentes	19.400755000000	-99.169886000000
990005511	270	Day Light Salads Laguna	19.441507000000	-99.181555000000
990005514	513	Con o Sin Queso Quesadillas	20.723135000000	-103.374262000000
990005516	140	Chinito Wings	20.600783000000	-100.384628000000
990005525	140	Mr. Sushi - Torre Mayor	19.424325000000	-99.175194000000
990005526	703	Mr. Sushi - Dos Patios	19.436920000000	-99.186590000000
990005528	1398	Sweet and Fit Providencia	20.691792000000	-103.412961000000
990005529	685	Sweet and Fit Valle Real	20.724068000000	-103.454246000000
990005532	226	Sushi Pop Interlomas	19.400266000000	-99.271318000000
990005534	1101	Tortas Díaz	20.588854000000	-100.402245000000
990005535	344	Fresh Saladas Guadalupe	20.666536000000	-103.401857000000
990005536	268	La Peltreria	20.660751000000	-103.406575000000
990005538	651	Butcher & Sons - Coyoacán	19.345862000000	-99.174009000000
990005541	799	Il Tavolo - Sao Paulo	20.701988000000	-103.376558000000
990005542	455	Il Tavolo Plaza las Villas	20.588788000000	-103.444755000000
990005543	360	Il Tavolo Xochitl	20.654935000000	-103.406871000000
990005544	540	Il Tavolo Sania	20.675143373226	-103.392561420620
990005545	553	Il Tavolo Portobello	20.729687000000	-103.452481000000
990005546	401	Barbacoa el Güero	20.656343000000	-103.424335000000
990005549	450	Il Tavolo Technology Park	20.721201000000	-103.491758000000
990005554	2002	Joker Tortas & Burgers	25.659656000000	-100.366500000000
990005557	635	Carnes de la Torre 8 de Julio	20.650544000000	-103.359563000000
990005574	387	Dulce Pecado Donas	20.564349000000	-100.419781000000
990005577	1092	Frank & Stein's	25.660365000000	-100.367978000000
990005585	589	Con la Sazón de Mamá Valle	25.660026000000	-100.365985000000
990005587	164	Carnes de la Torre Alcalde	20.710033000000	-103.346741000000
990005587	368	Carnes Asadas de la Torre Alcalde	20.710033000000	-103.346741000000
990005588	453	Sushi Makin - Pabellón del valle	19.372850000000	-99.163186000000
990005589	214	Sushi Makin - Roma	19.424706000000	-99.154089000000
990005592	731	Which Wich - Juan Salvador Agraz	19.358926000000	-99.278449000000
990005594	574	Algún Lugar Pizzería	20.660387000000	-103.405531000000
990005604	3401	Capricciosas Pizza Gourmet Valle Poniente	25.657210188569	-100.410833958680
990005609	3227	Capricciosas Pizza Gourmet Valle Oriente	25.637382000000	-100.311777000000
990005610	3400	Capricciosas Pizza Gourmet San Jerónimo	25.686763000000	-100.376519000000
990005611	1960	Capricciosas Pizza Gourmet Contry	25.643553000000	-100.277005000000
990005615	133	Papa Frank	20.589083000000	-100.409544000000
990005618	208	Skywings	20.674922000000	-103.368894000000
990005621	1765	Capricciosas Pizza Gourmet Leones	25.713169000000	-100.379875000000
990005622	3085	Capricciosas Pizza Gourmet Gomez Morin	25.628491000000	-100.364330000000
990005629	326	KokiItto	20.616408000000	-100.401536000000
990005631	113	Tacos al Carbón Lalo	19.493702000000	-99.227266000000
990005634	801	Las Alitas Cumbres	25.696597088330	-100.353601557950
990005635	199	Mr. Sushi - Torre Diana	19.427014000000	-99.172071000000
990005636	562	Las Alitas Plaza Real	25.679657926304	-100.353322608220
990005637	121	Todo Empanadas Paseos del Sol	20.632213000000	-103.430508000000
990005643	581	Antos Restaurante	20.700600000000	-103.348923000000
990005645	374	Sushi Itto - San Jerónimo	19.328491670171	-99.218711790291
990005646	411	Sushi Itto - Las Águilas	19.361773000000	-99.196846000000
990005647	161	Sushi Itto - Gran Sur	19.306635000000	-99.165528000000
990005652	1169	Milk Pizzeria	25.659363000000	-100.364602000000
990005654	653	Sushi Itto Valle	25.658460000000	-100.356033000000
990005659	758	Las Kekas de la Cimatario	20.582777000000	-100.390697000000
990005661	787	Los Gusanos Tacotorro	20.611133000000	-100.377027000000
990005662	210	Pasión del Cielo Prado Norte	19.427537000000	-99.207676000000
990005665	492	Starbucks Bugambilias	20.600754313121	-103.448369039360
990005666	1110	Starbucks Palomar	20.589513000000	-103.443146000000
990005667	1306	Starbucks Alcalde	20.703407000000	-103.347673000000
990005668	369	Tokai Gavilanes	20.572873000000	-103.454092000000
990005669	1018	Tokai La Rioja	20.568800000000	-103.458413000000
990005673	1480	NL Burger King Manantial	20.564661000000	-103.460369000000
990005674	1174	Super Salads Galicia	20.576545000000	-103.443019000000
990005675	436	Fresh Salads Ciudad Granja	20.682218000000	-103.446166000000
990005686	133	Jack´s Butcher - Samara	19.368567905222	-99.257771504126
990005691	275	Mr. Sushi - Perisur	19.304822000000	-99.189413000000
990005694	225	Mr.  Sushi- Patriotismo	19.396313000000	-99.180573000000
990005707	624	Kabuki - Del Valle	19.392089000000	-99.162396000000
990005708	318	Kabuki - Roma Tonalá	19.412143000000	-99.161334000000
990005711	115	Kfecito del Barrio	19.361368000000	-99.150306000000
990005715	393	Cenaduría Las Brisas	20.592170000000	-100.400266000000
990005788	449	Las Alitas Nuevo Sur	25.653250396817	-100.276293404080
990005806	310	Verde Manifesto	20.587752000000	-100.385005000000
990005808	293	Las Alitas Constitución	25.669108407054	-100.339611155730
990005817	359	Pinche Gringo BBQ - Warehouse	19.441119000000	-99.181745000000
990005819	224	Sushi itto Contry	25.634157000000	-100.282422000000
990005821	490	Buffalos Hot Wings Tec	25.653360000000	-100.294115000000
990005822	556	 La Mexicana Taqueria Cumbres	25.708005000000	-100.368121000000
990005822	168	 La Mexicana	25.708005000000	-100.368121000000
990005826	207	Nuriko - Universidad	20.602945000000	-100.382893000000
990005829	333	Fit to Go	19.405976000000	-99.176530000000
990005830	124	Hamburguesas Las Mamut	20.641124000000	-103.388537000000
990005834	452	Papa John's Pizza Bellavista	19.518644100000	-99.251705700000
990005836	525	Restaurante Tsuru	20.594011000000	-100.415785000000
990005848	211	Pollo Pepe Américas	20.716411000000	-103.388659000000
990005851	186	Pollo Pepe Abastos	20.660420000000	-103.383495000000
990005852	146	Pollo Pepe Lomas de Zapopan	20.745328000000	-103.398453000000
990005854	235	Pollo Pepe Moctezuma	20.650809000000	-103.439004000000
990005859	700	Papa John's Pizza Tecamachalco	19.430700800000	-99.224722100000
990005860	154	Papa John's Pizza Herradura	19.421376700000	-99.262522600000
990005861	134	Papa John's Pizza Interlomas	19.405914564914	-99.272998977298
990005861	777	Papa John's Pizza Interlomas	19.405913300000	-99.273014400000
990005862	878	Papa John's Pizza Santa Fe	19.367038900000	-99.263020000000
990005863	787	Papa John's Pizza Roma	19.404360700000	-99.168533600000
990005865	891	Papa John's Pizza Nápoles	19.386077300000	-99.176230200000
990005866	525	Papa John's Pizza Leones	19.358785800000	-99.198197100000
990005867	215	Papa John's Pizza Águilas	19.347873657274	-99.232052553373
990005868	1169	Papa John's Pizza Zona Rosa	19.425483100000	-99.166559100000
990005869	1412	Papa John's Pizza Polanco Ejército Nacional	19.437950900000	-99.186155100000
990005870	608	Papa John's Pizza Félix Cuevas	19.371902000000	-99.169926000000
990005871	719	Papa John's Pizza San Jerónimo	19.321620738915	-99.221759234988
990005872	156	Papa John's Pizza Estadio Azteca	19.301798341432	-99.165621373572
990005873	263	Papa John's Pizza Florida	19.359615200000	-99.183280200000
990005874	364	Papa John's Pizza MA Quevedo	19.344898400000	-99.167268500000
990005876	415	Papa John's Pizza Miramontes	19.317692000000	-99.129280100000
990005877	433	Papa John's Pizza Acoxpa	19.295778000000	-99.133540000000
990005878	329	Papa John's Pizza Tlalpan	19.296003503324	-99.180819502685
990005879	333	Papa John's Pizza Santa Mónica	19.527910154434	-99.228295486508
990005880	143	Papa John's Pizza Valle Dorado	19.551886000000	-99.212413000000
990005881	321	Papa John's Pizza  Echegaray	19.487284000000	-99.232739100000
990005882	651	Papa John's Pizza Prado Norte	19.427186700000	-99.211629200000
990005883	366	Papa John's Pizza Zona Azul	19.504206000000	-99.249553000000
990005884	868	Papa John's Pizza Xola	19.396061000000	-99.159111000000
990005890	354	Montmartre Crepas & Churros	19.403025000000	-99.173756000000
990005903	319	Juanjo's Kebab - Interlomas	19.402624000000	-99.270235000000
990005913	189	Pasión del Cielo Río Guadalquivir	19.427846000000	-99.169931000000
990005914	175	Pasión del cielo Palmas	19.430368000000	-99.210851000000
990005915	138	Pasión del Cielo Insurgentes	19.356724000000	-99.184915000000
990005916	167	Pasión del Cielo Plaza mega satélite	19.497840000000	-99.238047000000
990005917	117	Pasión del Cielo Satélite	19.498018000000	-99.236267000000
990005920	226	Acá las Tortas La Gran Plaza	20.673628000000	-103.404955000000
990005924	110	Toro Fire	25.642920000000	-100.276768000000
990005938	151	Gabylu Boulevares	19.491582000000	-99.244369000000
990005940	278	Bacon & Eggs	19.385121000000	-99.170337000000
990005956	330	Sushi Móvil Providencia	20.693679000000	-103.386476000000
990005957	169	Sushi Móvil Chapalita 	20.666972000000	-103.404133000000
990005965	192	Le Petite Bretonne Crepas	25.653025000000	-100.337872000000
990005981	393	Pollo Pepe Los Cubos	20.678638000000	-103.417894000000
990005982	1098	Hamburguesas al Carbón - Yucatán	19.415600000000	-99.165474000000
990005983	701	Hamburguesas al Carbón - Bajío	19.405324000000	-99.155347000000
990005988	328	Sushi Itto - Manacar	19.368510000000	-99.181047000000
990005990	897	Sushi Itto - Interlomas Anahuac	19.398979178404	-99.275637224537
990005992	103	Pizzas Iztaccíhuatl	19.408257000000	-99.167857000000
990005996	148	Blau Kitchen	19.304540000000	-99.205045000000
990005997	3859	Carl's Jr. Sao Paulo	20.702315000000	-103.376204000000
990005998	3906	Carl's Jr. Cordilleras	20.659749000000	-103.421329000000
990006001	1239	Carl's Jr. Andares	20.710834000000	-103.411415000000
990006002	2911	Carl's Jr. Santa Margarita	20.732287000000	-103.430544000000
990006003	1007	Carl's Jr. La Rioja	20.570054000000	-103.456876000000
990006006	2319	Carl's Jr. Circunvalación	20.700535000000	-103.337647000000
990006010	208	Le Petite Bretonne Crepas Contry	25.642033000000	-100.279379000000
990006071	444	Sushi To Go	25.658067000000	-100.395429000000
990006073	364	Chilaquiles Poncho Providencia	20.702230000000	-103.379007000000
990006076	193	Pollo Pepe Clouthier	20.669211000000	-103.418221000000
990006084	136	Goffret - Lilas	19.387968000000	-99.247789000000
990006089	909	Las Flautas Zona Azul	19.505211000000	-99.247889000000
990006092	147	Pizzalianni's Express - Buenavista	19.448400000000	-99.151963000000
990006094	203	El Rincón del Gordo	20.733939000000	-103.423367000000
990006098	115	Tessito Jardines de la Hacienda	20.570813000000	-100.407831000000
990006100	226	Pollo Pepe Santa Tere	20.681362000000	-103.367133000000
990006101	376	Urban Spices - Universidad	19.376890000000	-99.160611000000
990006122	107	Baguettes Gourmet & Charcutería Hinojosa	19.376282000000	-99.154063000000
990006126	3105	Taquería Orinoco Centrito	25.660297000000	-100.367467000000
990006127	2067	Taquería Orinoco Colinas de San Jerónimo	25.685115000000	-100.373733944775
990006128	240	Don Carbón Sur	20.584294000000	-103.447568000000
990006130	297	La Horneria	19.403702084251	-99.168576871776
990006131	474	Sakana Río Orinoco	25.659077000000	-100.362173000000
990006131	261	Sakana Río Orinoco	25.658942212755	-100.362144166253
990006132	317	Taquería Paco Meralgo	19.417790747204	-99.267515423278
990006133	3475	Bisquets Obregón - Polanco	19.437359000000	-99.200772000000
990006134	860	Bisquets Obregón - Plaza Inn	19.351665706446	-99.187458132610
990006137	483	Bisquets Obregón - Carmen	19.418520007518	-99.157430665012
990006137	621	Bisquets Obregón - Carmen	19.418434000000	-99.157546000000
990006141	275	Barbacoa Don Ignacio	19.435987000000	-99.152517000000
990006143	654	El Moreno Tortas Ahogadas Lopez Mateos	20.611652273413	-103.428976923940
990006150	269	La Pantera Fresca Satelite	19.518664000000	-99.231982000000
990006151	605	El Moreno Tortas Ahogadas Av. México	20.679361000000	-103.373006000000
990006153	935	El Moreno Tortas Ahogadas Patria	20.679325000000	-103.421264000000
990006154	546	El Moreno Tortas Ahogadas Santa Margarita	20.730502000000	-103.420288000000
990006155	389	El Moreno Tortas Ahogadas Zapopan	20.719065732078	-103.386409688040
990006158	545	El Moreno Tortas Ahogadas Centro	20.666053000000	-103.350055000000
990006170	144	Madre Tierra	25.658450000000	-100.368100000000
990006171	6471	Taquería Orinoco	19.417796000000	-99.164973000000
990006173	191	Corner Deli San Jerónimo	25.680840000000	-100.370113000000
990006176	828	A Mover El Bigote	20.591003000000	-100.401495000000
990006177	225	Pollo Feliz Estadio	20.577287000000	-100.374289000000
990006213	476	Tacos Francia	20.597053000000	-100.381538000000
990006227	458	Vips - Palmas Altezza 81281	19.430127000000	-99.213325000000
990006237	483	Buffalo Wild Wings Avanta	25.657569000000	-100.389234000000
990006237	870	Buffalo Wild Wings Avanta	25.657148312909	-100.389179014715
990006244	674	Pieology Polanco	19.438669000000	-99.188516000000
990006249	318	Take A Wok - Coapa	19.302272000000	-99.112919000000
990006252	159	La Crepa Suc. Sania	20.675257206586	-103.393021457670
990006253	270	La Crepa Jardín Real	20.730106000000	-103.440037000000
990006261	111	Taquería Fer	19.319781000000	-99.133585000000
990006262	607	Maikai Poke	19.416647000000	-99.175554000000
990006262	1251	Maikai Poke	19.416588185363	-99.175570763806
990006263	363	Titan Fish	20.635539000000	-103.426727000000
990006267	289	Farina - Lomas	19.418174000000	-99.215030000000
990006268	342	Boca 21 Plaza del Sol	20.650729000000	-103.402237000000
990006269	360	Boca 21 Chapultepec	20.673268000000	-103.368349000000
990006270	294	Boca 21 Gran Plaza	20.672888000000	-103.403876000000
990006271	145	Boca 21 Chapalita	20.665480000000	-103.406475000000
990006274	700	Lucky Sushi - Ciudad Jardín 	19.336528000000	-99.146924000000
990006274	508	Lucky Sushi - División del Norte	19.336528000000	-99.146924000000
990006337	188	El Chavalón	20.587105000000	-100.395704000000
990006339	872	Tokai Iteso	20.611813000000	-103.414896000000
990006347	281	Katamo Sushi - La Estancia	20.669927000000	-103.437493000000
990006356	598	Los Dogos	20.571096000000	-100.414284000000
990006373	1224	Crepes & Waffles  222	19.428586242543	-99.161900654106
990006378	311	Chendo y Chon	20.696707000000	-103.355373000000
990006382	1234	Tokai Patria	20.667444000000	-103.424030000000
990006385	201	Chicken House & Salads Patria	20.639376000000	-103.419807000000
990006386	461	Cassava Roots Torre Manacar	19.369498000000	-99.181270000000
990006387	372	Cassava Roots Polanquito	19.431083000000	-99.196420000000
990006391	179	Mr. Sushi - Patio Santa Fe	19.377128000000	-99.254482000000
990006395	125	La Fugitiva - Espartaco	19.318904000000	-99.134267000000
990006398	259	Vancouver Wings La Calma	20.632681000000	-103.414356000000
990006399	596	La Purisima Valle	25.659370878214	-100.368972049110
990006400	237	Verde Amor	19.505102000000	-99.248223000000
990006415	187	Chili's Ciudadela Guadalajara	20.648833000000	-103.420511000000
990006416	311	Chili´s Avanta Mty	25.657446000000	-100.389630000000
990006419	424	Chili's Santa Anita	20.586724000000	-103.446896000000
990006420	335	Chili's Plaza Andares	20.711198000000	-103.412205000000
990006421	155	Chili's Plaza del Sol	20.650522000000	-103.402664000000
990006423	291	Chili's Galerias Guadalajara	20.677134000000	-103.431134000000
990006424	141	Chili's Gran Plaza	20.674327000000	-103.404935000000
990006425	466	Chili's Centro Magno	20.674243000000	-103.380882000000
990006426	415	Sushi itto - Olivar de los Padres	19.337462000000	-99.237620000000
990006428	271	Chili´s Galerías Mty	25.680816000000	-100.355880000000
990006430	121	Chili´s Contry	25.635623000000	-100.282799000000
990006431	134	Chili´s Cumbres	25.714834000000	-100.380327000000
990006433	842	Taquería Los Compadres Fuentes	19.519896000000	-99.254474000000
990006433	250	Los Compadres	19.519896000000	-99.254474000000
990006439	199	Pollo Feliz El Jacal	20.569666000000	-100.414888000000
990006445	158	Pozole El Chato	19.374417000000	-99.135863326389
990006446	1397	Carl's Jr. Belenes	20.738097000000	-103.401540000000
990006447	327	Carl's Jr. Río Nilo	20.640362000000	-103.274776000000
990006448	1373	Carl's Jr. Centro Sur	20.602628653535	-103.401794923940
990006450	2210	Carl's Jr. Sanzio	20.678659000000	-103.431041000000
990006452	516	Papa John's Pizza Copilco	19.337730000000	-99.184029000000
990006453	759	Papa John's Pizza Sonora	19.417596000000	-99.171068000000
990006454	459	Mr. Sushi - Puerta La Victoria	20.585598000000	-100.380839000000
990006457	208	Rozmar - Naciones Unidas	20.687197000000	-103.424245000000
990006459	1820	Koku	19.429681000000	-99.166149000000
990006469	382	Las Flautas División del Norte	19.362077000000	-99.154538000000
990006471	931	Salad Fresh - Plaza del Parque	20.614729000000	-100.391189000000
990006472	194	Pizza Tec Biagio	20.613120000000	-100.401056000000
990006473	332	La Fontana Baguettes	20.623701000000	-100.400249000000
990006484	254	Texas Ribs - Buenavista	19.448503606958	-99.152211753477
990006485	133	Texas Ribs - Cúspide	19.514565878126	-99.267335778984
990006488	1851	Burro Astral	20.675842301435	-103.370041326390
990006493	868	Sushi Central - Plaza Las Villas	20.588647000000	-103.445210000000
990006497	657	Tito's Alitas Adictivas	25.647823000000	-100.291274000000
990006497	563	Tito's Alitas Adictivas	25.647704521119	-100.291088927578
990006499	447	P.F. Chang´s - Delta	19.402773000000	-99.154930000000
990006521	984	"Frat Pack Vasconcelos			"	25.657010086367	-100.388913119609
990006521	359	"Frat Pack			"	25.656984700000	-100.389059300000
990006521	864	"Frat Pack Vasconcelos			"	25.656984700000	-100.389059300000
990006794	298	Cuarto de Kilo Tlaquepaque	20.638293000000	-103.314022000000
990006796	420	La Aceituna	20.612755000000	-100.400646000000
990006799	277	Italianni's Patriotismo (D)	19.395742000000	-99.180813000000
990006802	409	El Lobo Taquería Miramontes	19.307139730790	-99.123303564314
990006804	142	Pizzería Casa Nostra	19.513632000000	-99.261884000000
990006826	136	Chili's Insurgentes	19.395840000000	-99.172031000000
990006827	216	Pícora Pizza	20.675384000000	-103.392957000000
990006830	1610	Verde Bendito Providencia	20.702864668356	-103.377448658896
990006835	1249	Verde Bendito Aviación	20.729280537464	-103.452480615904
990006837	275	Vancouver Wings - Condesa	19.406588000000	-99.184136000000
990006838	170	Vancouver Wings - Huixquilucan	19.377135000000	-99.295940000000
990006839	117	Vancouver Wings - Centro	19.428502000000	-99.136866000000
990006844	131	Sushi Express (Circunvalación)	20.704086488217	-103.344313107969
990006844	2140	Sushi Express Circunvalación	20.704086488217	-103.344313107969
990006845	269	Gordo Lobo	19.513768000000	-99.260323000000
990006852	777	Bisquets Obregón - Zona Rosa	19.425405000000	-99.165072000000
990006854	199	Vips -  Querétaro Constituyentes 81049	20.586057000000	-100.382315000000
990006855	460	Vips - Querétaro  Del Parque 81069	20.616274000000	-100.399557000000
990006861	316	Po' kou	19.427472000000	-99.211722000000
990006868	250	Mariscos La Fuente de la Juventud	19.391182000000	-99.183948000000
990006873	160	Vips - Palomar 81283	20.589363000000	-103.443292000000
990006877	263	Italianni's Insurgentes	19.392399000000	-99.173220000000
990006883	201	Italianni's Galerias	20.676911000000	-103.430699000000
990006884	274	Italianni's Gran Plaza (A)	20.673687000000	-103.405619000000
990006885	220	Italianni's Nuevo Sur (B)	25.652928092066	-100.276105103180
990006886	268	Italianni's Gonzalitos	25.678783000000	-100.351347000000
990006887	442	P.F. Chang´s Interlomas	19.396952000000	-99.281101000000
990006888	540	P.F. Chang´s WTC	19.394538000000	-99.173011000000
990006889	502	P.F. Chang´s Santa Fe	19.361093000000	-99.275717000000
990006891	425	P.F. Chang´s Galerias	20.678352000000	-103.430819000000
990006892	108	Mi Sabor Venezolano	20.736375000000	-103.418371000000
990006893	497	P.F. Chang´s Andares	20.710065000000	-103.413233000000
990006894	273	P.F. Chang´s Nuevo Sur	25.653319000000	-100.274830000000
990006895	526	P.F. Chang´s San Pedro	25.651111000000	-100.359335000000
990006896	387	Chili's Santa Fe II	19.361292000000	-99.275753000000
990006897	124	Chili's Querétaro Antea	20.674590000000	-100.437343000000
990006898	188	Chili's Galerias Querétaro	20.577524000000	-100.405073000000
990006899	393	Chili's Queretaro Boluevares	20.614868000000	-100.387710000000
990006900	1777	The Cheesecake Factory - Delta	19.402530000000	-99.154536000000
990006901	809	The Cheesecake Factory Santa Fe	19.361788000000	-99.273575000000
990006902	652	The Cheesecake Factory - Guadalajara	20.677827000000	-103.430961000000
990006906	196	El Diez - Polanco	19.440250000000	-99.184515000000
990006912	142	Sonora's Meat Chapalita	20.665327000000	-103.396150000000
990006914	324	Fresh Salads Centro	20.672980000000	-103.347331000000
990006917	359	Los de Aguacate y Queso Leones	25.694557000000	-100.347326000000
990006919	216	Which Wich - Delta	19.402845000000	-99.153922000000
990006923	317	Which Wich - Antara	19.439553838369	-99.202589005828
990006924	426	Which Wich - Miyana	19.439274760921	-99.199886868717
990006928	151	Arepas Llenas de Gracia	19.372819035920	-99.278021673611
990006931	160	El Portal del Sabor	19.353547000000	-99.160987000000
990006935	373	Chili's Paseo Interlomas	19.398034000000	-99.282808000000
990006939	447	Chilo Tacos & Grill Valle Comidas	25.654425000000	-100.382182000000
990006941	423	Chilo Tacos & Grill Mitras Comidas	25.684502000000	-100.345289000000
990006942	864	La Pantera Fresca Condesa	19.408078000000	-99.176825000000
990006947	137	Buen Pollo Cuitlahuac	19.458826264502	-99.179232988343
990006949	650	Tortas La Güera Queretana Tecnologico	20.611231000000	-100.409809000000
990006950	255	Tortas La Güera Queretana Hidalgo	20.590090000000	-100.405244000000
990006951	111	"Los Patrones Grill	"	25.713082000000	-100.363790000000
990006957	108	Tkai Shino Sushi Residencial Victoria	20.640501000000	-103.397020000000
990006963	293	Tacos Paza Providencia	20.686780000000	-103.385086000000
990006968	470	La Parroquia de Veracruz - City Center	21.037292000000	-89.602664000000
990006981	203	Pan & Salchicha Co.	25.690839000000	-100.355804000000
990006982	1167	Capricciosas Pizza Gourmet Universidad	19.377455000000	-99.160859000000
990006983	1701	Capricciosas Pizza Gourmet Polanco	19.432909000000	-99.183046000000
990006990	122	"Areperia	"	19.420864000000	-99.169329000000
990006991	251	Vancouver Wings Loma Bonita	20.630597000000	-103.401404000000
990006992	1230	Super Salads Chapalita	20.666263000000	-103.398704000000
990006992	340	Super Salads Chapalita	20.666069759581	-103.398591347221
990006995	105	Pollos Rio Del Valle	19.369724000000	-99.172044000000
990006999	218	Vancouver Wings Circunvalación	20.705834000000	-103.363898000000
990007000	296	La Jarochita Comida Veracruzana	25.648642000000	-100.296266000000
990007001	1084	Tito's Alitas Adictivas Vasconcelos	25.652929000000	-100.347553000000
990007004	387	A la Verde	19.418974000000	-99.179277000000
990007013	354	Mac & Choose	19.418967000000	-99.179277000000
990007014	114	Tortas Ahogadas El Master	20.608839220918	-103.395850087140
990007019	321	Nane Reposteria	19.346479000000	-99.170135000000
990007020	518	Las Alitas - Gran Plaza	20.674289000000	-103.405165000000
990007026	417	Hamburguesas al Carbón - Reforma	19.430569000000	-99.161111000000
990007027	856	Hamburguesas al Carbón - Del Valle	19.379130000000	-99.160620000000
990007027	632	Hamburguesas al Carbón - Del Valle	19.379033850674	-99.160556968088
990007028	138	El Sazón Venezolano Plaza Panorama	19.394382000000	-99.290086000000
990007031	3962	Carl's Jr. - Plaza Cascadas	21.019469000000	-89.606354000000
990007031	225	Carl's Jr. - Plaza Cascadas (NO PRENDER)	21.019469000000	-89.606354000000
990007032	1792	Carl's Jr. Plaza Galerías Mérida	21.039937000000	-89.631840000000
990007033	3678	Carl's Jr. - Prolongación Montejo	21.007842000000	-89.613835000000
990007036	198	Santas Alitas Balcones	20.608880000000	-103.395865000000
990007037	542	Wendy's San Jerónimo	25.696502000000	-100.380841000000
990007039	1166	Teikit Tonalá	19.417273000000	-99.162632000000
990007039	384	Teikit - Tonalá	19.417273000000	-99.162632000000
990007040	293	La Jarochita Comida Veracruzana Cumbres	25.737120000000	-100.405423000000
990007054	465	Wendy's Vasconcelos	25.650992000000	-100.359965000000
990007062	146	Viva Pizza Garza Sada	25.641403000000	-100.285668000000
990007075	1047	TGI Fridays - City Center	21.036570000000	-89.602860000000
990007094	168	Hamburguesas al Carbón - Centro	19.427416000000	-99.150846000000
990007097	341	Vips Macroplaza 81249	20.998062000000	-89.573910000000
990007099	156	Barrilete Negro	20.687436000000	-103.427279000000
990007100	2291	Burger King Fco. de Montejo FS (CON MENÚ DE DESAYUNOS)	21.031229400000	-89.646801400000
990007101	956	Burger King Gran Plaza Mid FC	21.030270000000	-89.624870000000
990007102	1360	Burger King Norte (Montejo) FS	21.025712000000	-89.623520000000
990007103	1918	Burger King Montejo FS	20.998405000000	-89.616452000000
990007104	1049	Burger King Altabrisa FS (Estacionamiento)-EXE	21.017562000000	-89.582452000000
990007104	958	Burger King Altabrisa FS (Estacionamiento)	21.017562000000	-89.582452000000
990007105	1606	Burger King Macroplaza FC	20.999320000000	-89.574110000000
990007108	284	"La Estelina Pizza			"	25.660495000000	-100.383032000000
990007109	1807	Tacos A Patria	20.698277000000	-103.415684000000
990007111	265	Nanami Sushi & Sake	20.709750000000	-103.405881000000
990007121	413	green grass - Acora Pedregal	19.306400000000	-99.201598000000
990007126	462	El Güero Alteño Santa Esther	20.728208982821	-103.412715000000
990007129	568	El Güero Alteño Valle	20.741124000000	-103.424894000000
990007130	678	El Güero Alteño Sao Paulo	20.704423000000	-103.376874000000
990007131	509	El Güero Alteño Real Center	20.730353000000	-103.430354000000
990007134	854	El Güero Alteño Clouthier	20.650924000000	-103.426425000000
990007135	375	El Güero Alteño Lomas de Zapopan	20.746883000000	-103.401999000000
990007137	295	green grass - Centro Coyoacán	19.360180000000	-99.170180000000
990007140	994	green grass - Santa Fe	19.361281000000	-99.274297000000
990007142	256	El Güero Alteño Cañadas	20.747092000000	-103.385310000000
990007143	1113	green grass - Dakota	19.395465000000	-99.175196000000
990007144	557	El Güero Alteño Ciudad Granja	20.685142000000	-103.443075000000
990007146	957	green grass - Lomas Plaza	19.430279000000	-99.206755000000
990007158	393	green grass - Gran Sur	19.306154000000	-99.165638000000
990007161	278	green grass - Oasis Coyoacán	19.345258000000	-99.179577000000
990007164	579	green grass - Pabellón Polanco	19.438579000000	-99.206402000000
990007165	170	Vancouver Wings Alcalde	20.689205000000	-103.347746000000
990007169	1842	Popeyes Andares	20.710570000000	-103.411424000000
990007170	788	Hot Dog Ramírez Del Valle	19.389397000000	-99.167087000000
990007180	472	green grass - Portal San Ángel	19.361645000000	-99.190887000000
990007181	1172	green grass - Parque Delta	19.402171000000	-99.153788000000
990007182	465	green grass - Plaza Inn	19.352152000000	-99.186619000000
990007183	713	green grass - Plaza Universidad	19.367048000000	-99.166009000000
990007184	277	Rebel Wings Plaza Armand	19.371498462043	-99.180456699406
990007185	153	Rebel Wings Centro Histórico	19.433546000000	-99.142731000000
990007186	182	Rebel Wings Universidad	19.342166000000	-99.181367000000
990007187	255	Rebel Wings Roma Condesa	19.410988000000	-99.166731000000
990007188	220	Rebel Wings La Viga	19.357671000000	-99.122212000000
990007189	243	Rebel Wings Pabellón Cuauhtémoc	19.411846000000	-99.155204000000
990007191	360	green grass - Galerías Insurgentes	19.371192000000	-99.178811000000
990007192	343	Rebel Wings Polanco	19.436415000000	-99.202572000000
990007194	277	Rebel Wings Gran Sur	19.306080000000	-99.165532000000
990007195	214	Rebel Wings - Insurgentes Sur	19.361840000000	-99.182658000000
990007197	457	green grass - Del Valle	19.382647000000	-99.175730000000
990007198	121	green grass - Antea Querétaro	20.675191000000	-100.435771000000
990007199	1934	Capricciosas Pizza Gourmet Plaza Serranía	25.745101000000	-100.419375000000
990007202	313	Carl's Jr. Fundidora	25.678381000000	-100.290138000000
990007207	377	Carl's Jr. Versalles	25.669338000000	-100.320504000000
990007208	859	Carl's Jr. Venustiano	25.669905000000	-100.333385000000
990007209	397	Carl's Jr. Zona Rosa Emilio Carranza	25.667407000000	-100.312556000000
990007211	159	Garden Station	25.648610000000	-100.289247000000
990007213	1394	Onigiri Casa Poke - Providencia	20.703385000000	-103.378747000000
990007217	452	Eco Sano Bistro	21.038473000000	-89.603760000000
990007256	3730	Ojo de Agua Agoralucis	19.430863000000	-99.198840000000
990007257	2629	Ojo de Agua Polanco	19.433270900000	-99.189861900000
990007258	2383	Ojo de Agua Arcos Bosques	19.386856200000	-99.254208000000
990007259	1634	Ojo de Agua Corredor Salamanca	19.421173000000	-99.169766000000
990007260	694	Ojo de Agua Juárez	19.429285000000	-99.157117000000
990007261	4381	Ojo de Agua Condesa Express	19.409313500000	-99.171595800000
990007263	560	Chilakiles Premium Tejeda	20.559740000000	-100.413354000000
990007263	131	Chilaking Tejeda	20.559740000000	-100.413354000000
990007270	573	Sushi Itto - Portal Churubusco	19.368537204386	-99.121723000000
990007274	134	Vancouver Wings Minerva	20.673940000000	-103.381455000000
990007275	568	Vancouver Wings Providencia	20.684350000000	-103.390976000000
990007300	149	Pamplona Bar & Grill	21.024789000000	-89.604480000000
990007303	809	MR. TACOS	19.052271099778	-98.277945157078
990007307	355	 La Mexicana Taqueria Centro	25.677512000000	-100.313326000000
990007307	118	 La Mexicana Centro	25.677512000000	-100.313326000000
990007311	827	Fuddruckers - García Lavín	21.033206070015	-89.603412547291
990007312	109	Pollobobos Leones	25.705661000000	-100.369857000000
990007313	117	Che Chelas	20.588063000000	-100.412632000000
990007314	526	Pizza Rev Centro	25.679055000000	-100.289917000000
990007322	401	Subway - Vía San Angel	19.027374000000	-98.236649000000
990007324	710	Subway - Mega Angelópolis	19.029636000000	-98.235082000000
990007329	585	Subway - El Cerrito	19.021328780003	-98.212695431877
990007332	480	Subway-San Francisco	19.042807000000	-98.191014000000
990007335	166	Subway - Plaza San Diego	19.077345000000	-98.295763000000
990007347	1348	Bla Bla Sushi - Norte	21.032470000000	-89.602700000000
990007349	108	J.R Ribs	19.058518887040	-98.295998474869
990007350	212	Jack's Chili Dog - Zavaleta	19.049928000000	-98.248850000000
990007350	119	Jack's Chili Hot Dogs - Zavaleta	19.049928000000	-98.248850000000
990007351	130	La Nota MX	19.052227909696	-98.277775224537
990007355	166	Los Cochitos del Mayab - Cholula	19.049605000000	-98.267032000000
990007364	188	Los Cochitos del Mayab - La Paz	19.055609000000	-98.230709000000
990007369	118	Benedetti's Revolución	19.382667000000	-99.186945000000
990007371	1274	Sushi Innn - UPAEP	19.048903000000	-98.217518000000
990007373	1974	Sushi Innn - Cholula	19.052801000000	-98.287846000000
990007374	1478	Sushi Innn - Ibero	19.037382000000	-98.247655000000
990007375	830	Sushi Innn - Ánimas	19.044028000000	-98.233559000000
990007376	257	Brugge Paninis and Crepes	25.653630000000	-100.275536000000
990007379	1472	Hamburguesas al Carbón - Tonalá	19.421422000000	-99.163536000000
990007380	713	Hamburguesas al Carbón Ohio	19.398430000000	-99.171064000000
990007383	377	Tacos del Julio	25.659664000000	-100.366441000000
990007387	229	Old Jimmy's BBQ	25.653427287176	-100.381205542330
990007389	150	Burritos México - Condesa	19.423124000000	-99.163876000000
990007403	410	Vips Forjadores 81226	19.075492000000	-98.294504000000
990007406	151	Vips - Las Animas 81118	19.045136000000	-98.235623000000
990007407	313	Vips Angelopolis 81245	19.026604000000	-98.236792000000
990007409	164	Chilo Tacos & Grill Centro Comidas	25.666819000000	-100.315049000000
990007412	621	Karma Bagels - Cholula	19.058483000000	-98.295861000000
990007413	148	Karma Bagels - Paseo San Francisco	19.042729000000	-98.191524000000
990007415	258	Green Me - Cholula	19.055840000000	-98.296992000000
990007417	398	Green Me - La Noria	19.033964000000	-98.224720000000
990007418	241	Sushi Makin - San Pedro de los Pinos	19.389443000000	-99.192515000000
990007423	556	Salad Fresh La Victoria	20.585461000000	-100.381041000000
990007423	334	Salad Fresh La Victoria	20.584437158041	-100.380719134918
990007443	159	Benedetti's Plaza América	19.313422000000	-99.135584000000
990007444	178	Benedetti's San Jerónimo	19.323284000000	-99.223150000000
990007445	117	Benedetti's Miguel Ángel de Quevedo	19.343654002245	-99.154696072999
990007452	186	Benedetti's Anzures	19.435568000000	-99.173029000000
990007454	139	Benedetti's Insurgentes	19.398630000000	-99.170668000000
990007457	191	Benedetti's Plaza Altika	19.407801000000	-99.275593000000
990007459	113	Benedetti's Portales	19.360754700000	-99.149054900000
990007463	182	Tortas El Rayito	19.028162000000	-98.227000000000
990007466	380	Patatas Burgers & Wings	25.646735000000	-100.297265000000
990007468	580	Oriental Wok Santa Catarina	25.676942000000	-100.449073000000
990007470	2364	Don Kebab DK Escandon 	19.404074033643	-99.177794622966
990007470	744	Don Kebab DK Escandon 	19.404050000000	-99.179976600000
990007472	214	La Polar	19.500362000000	-99.236323000000
990007481	348	La Crepería	20.729293000000	-103.433182000000
990007484	303	The Italian Coffee Co - 60 Norte	21.016820000000	-89.624900000000
990007486	240	Maremotto	20.612944000000	-100.399356000000
990007487	424	Hamburguesas Memorables	19.393675000000	-99.174493000000
990007489	445	La Terrazzita	20.612888000000	-100.400086000000
990007492	436	Omigoto	20.697434000000	-103.389941000000
990007502	434	Oriental Grill	20.614599000000	-100.410225000000
990007506	1341	Pizza Hut - Félix Cuevas (PRB)	19.373167600000	-99.179783100000
990007513	154	Carnes Asadas Panchito	20.572139000000	-100.415154000000
990007518	353	Panareo-Lomas	19.002200000000	-98.270516000000
990007521	637	Comal	19.043293000000	-98.199386000000
990007526	259	Santa Mónica - La Paz	19.056729000000	-98.232436000000
990007532	233	Sushi Itto - Acoxpa	19.300084000000	-99.136607000000
990007542	345	The Italian Coffee Co. Plaza Altabrisa	21.016900000000	-89.584430000000
990007543	324	The Italian Coffee Co. Circuito Colonias	20.998240000000	-89.612390000000
990007545	325	The Italian Coffee Co. Francisco de Montejo	21.030010000000	-89.641470000000
990007546	200	Pubbelly Sushi	19.431778000000	-99.192113000000
990007551	659	Sushi Itto - Sonata Angelópolis	18.994560000000	-98.277241000000
990007552	917	Sushi Itto - Palmas Plaza	19.026713000000	-98.231043000000
990007553	811	Sushi Itto - Cholula	19.059106000000	-98.295920000000
990007554	2906	Swing Pasta	21.012153000000	-89.572481400000
990007558	204	Mi Herencia - Plaza Triángulo	19.043497000000	-98.235452000000
990007561	265	Tortas La Bamba	19.044960000000	-98.235453000000
990007566	2204	El Ranchero Tacos de Barbacoa	20.682351000000	-103.377120000000
990007569	159	Taquería La Victoria	25.745428000000	-100.419674000000
990007570	123	Yiu Yih Filosofos	20.700451000000	-103.342780000000
990007571	717	Pizzas La Stazione	25.695167000000	-100.347657000000
990007572	398	Bigotes Burger House	19.052263267640	-98.277705047089
990007581	473	Wanta Burger	25.663812000000	-100.401935000000
990007591	739	Pizza Hut - Polanco	19.433342148620	-99.184998860119
990007591	398	Pizza Hut - Polanco	19.433426883546	-99.185016294478
990007592	815	Pizza Hut - Miguel Angel II	19.348587200000	-99.186082500000
990007593	386	Pizza Hut - Satélite Músicos	19.504961700000	-99.226074600000
990007594	775	Pizza Hut - Fuentes de Satélite	19.518310500000	-99.250626700000
990007595	177	Pizza Hut - Plaza Satélite	19.513504500000	-99.233277900000
990007596	2328	Pizza Hut - Xola	19.397183000000	-99.164073000000
990007597	1163	Pizza Hut - Hamburgo	19.426443000000	-99.164390500000
990007600	890	Pizza Hut - Miramontes	19.321621300000	-99.132144100000
990007601	205	"I Like Pizza			"	25.674533000000	-100.313329000000
990007602	745	Pizza Hut - Pilares	19.376965700000	-99.161593200000
990007602	524	Pizza Hut - Pilares	19.377106130384	-99.161677689584
990007603	1429	Pizza Hut - Palma	19.433837000000	-99.135268000000
990007604	1274	Pizza Hut Constituyentes	20.583115000000	-100.395458000000
990007605	260	Pizza Hut - Plaza Juárez	19.433966000000	-99.142963000000
990007612	1134	We Love Burgers  Nápoles	19.388147200000	-99.175810300000
990007613	685	"I Like Pizza Cumbres Soriana		"	25.727973000000	-100.390073000000
990007618	144	Carnitas Arreola Lomas Del Marqués	20.610714000000	-100.365667000000
990007619	796	Oriental Poke House	25.745256000000	-100.419634000000
990007620	277	Kisin	21.037127000000	-89.608818000000
990007629	159	Crepe Zone	20.613062000000	-100.401189000000
990007630	259	El Padrino de los Naranjitos - Roma Norte	19.411123300000	-99.163674700000
990007630	116	El Padrino de los Naranjitos	19.385481000000	-99.166616000000
990007632	165	Ristorante Cosi Fan Tutte	20.610848047308	-100.367561973050
990007637	110	La Condesa 1989	25.683337000000	-100.372837000000
990007638	377	Carnitas Arreola Casa Blanca	20.579669000000	-100.398445000000
990007644	279	Toriiito Salsas & Grill	21.013541000000	-89.583938000000
990007648	261	El Patio y Las Ranas	19.045404000000	-98.198734000000
990007650	6643	Mc'Arthur	19.051827000000	-98.217576000000
990007651	193	Burger Corner - Zavaleta	19.040270049201	-98.250255994172
990007657	4032	Los Gusanos de Chucho	20.604463000000	-100.399747000000
990007657	2079	Los Gusanos de Chucho	20.603770063494	-100.399677262566
990007667	187	Makani Poke	20.596094000000	-100.354262000000
990007680	116	Shang Hai	20.667189000000	-103.402372000000
990007689	1598	Tacos Mario	20.563631000000	-100.414528000000
990007705	109	La Barra Verde Milenio	20.593647000000	-100.349271000000
990007708	403	El Japonez Manacar	19.368756300000	-99.181186800000
990007709	1190	Super Salads Patria	20.690060000000	-103.418263000000
990007711	223	Café Libertad	20.672846000000	-103.366942000000
990007717	208	Vegan Pa' Cá' - Satélite	19.518705351328	-99.231476971146
990007719	198	Kamafruta - Palmas Plaza	19.027476000000	-98.232001000000
990007720	202	Toppings Pizza	19.056384000000	-98.264532000000
990007721	171	La Costillita de Adán - La Paz	19.056732000000	-98.230069000000
990007725	568	Cheese Up Madero	20.590796000000	-100.397180000000
990007726	418	Cabanna - Santa Fe	19.359816000000	-99.279825000000
990007733	245	Europa Gourmet	19.036582000000	-98.248440000000
990007753	136	Barbacoa La Dominguera	25.682970000000	-100.369409000000
990007754	160	La Puntada	25.667170000000	-100.315313000000
990007755	678	Il Diavolo Constituyentes	20.581960000000	-100.397962000000
990007756	195	Maikai Pokes & Wraps	20.597418000000	-100.360500000000
990007760	113	Fresh Salads Pabellón	20.709283000000	-103.405876000000
990007762	2823	Rock n' Ribs Bernardo Quintana	20.599410000000	-100.376023000000
990007765	3599	Sushi Co - Prol. Paseo Montejo	21.012430700000	-89.613284400000
990007770	163	Monchis	19.055127000000	-98.292437000000
990007771	214	Alas Wings Lázaro Cardenas	20.666024000000	-103.395160000000
990007772	422	Alas Wings Lapizlazuli	20.641924000000	-103.391485000000
990007776	113	"Señor Gordita			"	25.694301000000	-100.379563000000
990007782	134	La Tortuga Rosa	25.710873000000	-100.375407000000
990007783	817	Il Diavolo Universidad	20.600368000000	-100.379808000000
990007787	123	Fidencio	25.648479000000	-100.333752000000
990007793	307	Chili's - Mérida Altabrisa 1506	21.016708200000	-89.583869800000
990007794	249	Chili's - Galerías Mérida 1506	21.039937100000	-89.631207000000
990007799	808	A Takear! - Camara de Comercio 	21.021539658980	-89.602069051590
990007813	405	Salad Bowl - Vía San Ángel	19.026902000000	-98.237623000000
990007814	196	"La Divinata Vasconcelos	"	25.656124000000	-100.388471000000
990007816	519	Okuma Sushi Las Aguilas	20.624924000000	-103.414200000000
990007817	243	Okuma Sushi Batán	20.719731000000	-103.345592000000
990007818	263	Okuma Sushi Chapalita	20.667265000000	-103.402540000000
990007819	541	Okuma Sushi Clouthier	20.662343000000	-103.420839000000
990007820	345	Okuma Sushi Independecia	20.711867000000	-103.322392000000
990007821	418	Okuma Sushi Patria	20.688179000000	-103.420094000000
990007824	209	The Italian Coffee Company Miravalle	25.672797000000	-100.368082000000
990007828	249	"La Divinata Gomez Morín		"	25.642955000000	-100.361823000000
990007829	280	"La Divinata Alfonso Reyes			"	25.660928000000	-100.415973000000
990007833	103	Cocina Colomos	20.694856000000	-103.374607000000
990007842	879	Sushi Co - San Ramón	21.027015200000	-89.605220800000
990007842	1578	Sushi Co - San Ramón	21.027087804508	-89.605132287103
